UTC,Pack_count,IMUTemp,q0,q1,q2,q3,Roll,Pitch,Yaw,RollRate,PitchRate,YawRate,AccX,AccY,AccZ,RealAccX,RealAccY,RealAccZ,PosX,PosY,PosZ,Long,Lat,Height,VelX,VelY,VelZ,RSSI,SNR,
22:47:17:19,10279,24.8125,0.99698   0.0018813  0.00060656   -0.077593,0.20954    0.086025     -8.9003,-0.00094843    0.010536   -0.013618,-0.00034308   0.0039711   0.0045853,-0.015572    0.039764      9.7969,0  0  0,24.78578      120.9973      144.0515,0.02008057    0.01934814      144.0515,-29,6,
22:47:17:53,10280,24.8438,0.99694   0.0019282  0.00060768   -0.078158,0.21484    0.086691     -8.9652,-0.0020542    0.013466   -0.015114,0.020615   0.0066795    0.013824,0.0042839    0.046539      9.8047,0  0  0,24.78578      120.9973      144.0932,0.01763916    0.01582336      144.0932,-28,6.25,
22:47:17:87,10281,24.8438,0.99691   0.0019246  0.00060017    -0.07851,0.21446    0.085877     -9.0057,-0.0019283     0.01284   -0.014824,0.030151    0.011101    0.013893,0.013206    0.052368      9.8047,0  0  0,24.78578      120.9973      144.1391,0.01904297      0.015625      144.1391,-28,6.25,
22:47:18:21,10282,24.8438,0.99688   0.0019295  0.00060416   -0.078935,0.21495    0.086469     -9.0546,-0.0018139    0.010338   -0.012634,0.015884   0.0064888  0.00075531,-9.5367e-06    0.045654      9.7891,0  0  0,24.78578      120.9973      144.1519,0.01651001    0.01470947      144.1519,-28,6,
22:47:18:55,10283,24.8438,0.99685   0.0018977  0.00061155   -0.079228,0.21122    0.087087     -9.0882,-0.0030918    0.013283   -0.016342,0.013245   0.0089798   0.0042801,-0.0034084    0.046936      9.7969,0  0  0,24.78578      120.9973      144.2005,0.01637268    0.01570129      144.2005,-29,6,
22:47:18:89,10284,24.8438,0.99684   0.0018781  0.00059875   -0.079474,0.20908    0.085498     -9.1165,-0.00062943   0.0098495   -0.012192,0.026184 -0.00038481      0.0186,0.011429    0.039673      9.8047,0  0  0,24.78578      120.9973      144.2564,0.01612854    0.01559448      144.2564,-30,6.5,
22:47:19:23,10285,24.8438,0.99681   0.0018581  0.00054447   -0.079763,0.20727    0.079176     -9.1497,-0.0053329    0.011726   -0.018021,0.0073776   -0.011246    0.031647,-0.0045319    0.025253      9.8203,0  0  0,24.78578      120.9973      144.2708,0.01209259    0.01596069      144.2708,-32,6.5,
22:47:19:57,10286,24.875,0.99679   0.0019156  0.00057303   -0.080001,0.21356    0.083015     -9.1771,-0.00055981    0.010338   -0.011757,0.010666    0.005352  -0.0070839,-0.0043869    0.043579      9.7813,0  0  0,24.78578      120.9973      144.3381,0.01222229    0.01537323      144.3381,-28,6.25,
22:47:19:91,10287,24.875,0.99672   0.0016567  0.00052053   -0.080899,0.18439    0.074811     -9.2804,-0.0082016   0.0059776   -0.026077,-0.041931    -0.25903     0.11816,-0.011978     -0.2312      9.9063,0  0  0,24.78578      120.9973       144.364,0.008361816  0.0009860992       144.364,-27,6.25,
22:47:20:25,10288,24.875,0.99694 -2.9895e-05  0.00013793   -0.078131,-0.0046502     0.01549     -8.9623,-0.0032234   0.0086899    0.031555,-0.042999    -0.59229    0.024872,0.04718    -0.59277      9.8125,0  0  0,24.78578      120.9973      144.3874,-0.006160736   -0.08306885      144.3874,-27,6.5,
22:47:20:58,10289,24.8594,0.99718  0.00050861  -0.0011029   -0.075068,0.067605    -0.12165     -8.6103,0.005352    0.065613   0.0055656,0.45581    -0.57178    -0.16223,0.55127    -0.48511       9.625,0  0  0,24.78578      120.9973      144.3957,-0.003223419    -0.2419434      144.3957,-26,6.5,
22:47:20:93,10290,24.8594,0.99912  0.00081726 -0.00095688   -0.041999,0.098174    -0.10562     -4.8143,-0.0029964    0.029053     0.09845,0.63135    -0.37329     0.22339,0.676758    -0.302734      10.0156,0  0  0,24.78578      120.9973      144.4039,0.0007052422    -0.3574219      144.4039,-27,6.5,
22:47:21:27,10291,24.8594,0.99938   0.0033724 -0.00027362   -0.035116,0.38732   -0.017764      -4.025,0.027359   -0.033386    -0.16772,-0.9834     0.50684     -1.4082,-1.0107     0.49438       8.375,0  0  0,24.78578      120.9973       144.443,0.01673889    -0.3669434       144.443,-27,6.25,
22:47:21:61,10292,24.8594,0.99948    0.002243  -0.0018569    -0.03214,0.26373    -0.20441     -3.6841,-0.0094299    0.035126   -0.025345,0.63037     0.19788     0.18726,0.6499      0.2832      9.9766,0  0  0,24.78579      120.9973      144.5184,0.03408813    -0.4238281      144.5184,-28,6.25,
22:47:21:95,10293,24.8594,0.99972  4.8976e-05  -0.0026805   -0.023332,0.012777    -0.30695     -2.6739,0.07019   -0.067017   -0.020264,-0.01046     -1.7158   -0.065369,0.12939     -1.7051      9.7266,0  0  0,24.78579      120.9973      144.5856,0.04910278     -0.503418      144.5856,-30,6.25,
22:47:22:29,10294,24.8594,1  0.00034587  0.00014339  -0.0027832,0.039587    0.016542    -0.31893,0.011856   0.0053444    0.038452,0.0057793     -0.4353   -0.036102,0.0057411    -0.42725        9.75,0  0  0,24.78579      120.9973      144.6594,0.08215332    -0.5825195      144.6594,-32,6.5,
22:47:22:63,10295,24.8594,0.99987  0.00067261  -0.0001417    0.015884,0.076807    -0.01746      1.8202,0.026459   -0.040161    0.039917,-0.39404     0.69287     0.15649,-0.36328     0.72168      9.9453,0  0  0,24.78579      120.9973      144.6813,0.107605    -0.5200195      144.6813,-34,6,
22:47:22:97,10296,24.8594,0.99968  -0.0013011   5.972e-05    0.025412,-0.14887     0.01063      2.9123,-0.0026016   -0.044861  -0.0048981,0.70117      1.5479     0.43652,0.782715       1.4834      10.2266,0  0  0,24.78579      120.9973      144.6704,0.1433105    -0.5083008      144.6704,-35,6.25,
22:47:23:31,10297,24.8281,0.99983  0.00035664   0.0011827    0.018409,0.043355     0.13475      2.1096,0.01947     0.15686   -0.043304,-0.28027     0.11957    -0.26099,-0.31201     0.13892      9.5234,0  0  0,24.78579      120.9973       144.702,0.1694336    -0.5698242       144.702,-35,6.25,
22:47:23:65,10298,24.8281,0.99951   0.0015514   0.0016895    0.031112,0.18371     0.18798       3.566,-0.0085831      0.1004   -0.023041,0.27197     0.73633     -0.1051,0.27686     0.74854      9.6797,0  0  0,24.7858      120.9973      144.7227,0.2070313    -0.6416016      144.7227,-37,6.75,
22:47:23:99,10299,24.8281,0.99978    0.002468    0.002454    0.020915,0.28864     0.27523      2.3975,-0.021164     0.19446   -0.079712,0.96777      1.6484     0.49561,0.966309      1.65625      10.2813,0  0  0,24.7858      120.9973      144.7538,0.2150879      -0.59375      144.7538,-38,7,
22:47:24:33,10300,24.8281,0.99986   0.0014873   0.0038775    0.016236,0.17762      0.4415      1.8613,0.12317    0.027298   -0.070557,-0.12732    -0.23926    -0.34302,-0.20923    -0.19397      9.4453,0  0  0,24.7858      120.9973      144.7831,0.2116699    -0.5844727      144.7831,-39,6.25,
22:47:24:67,10301,24.8281,0.9999  0.00041613   0.0022957    0.013695,0.051284     0.26239      1.5695,-0.0094833  0.00042248   0.0078354,-1.0449    -0.59033    -0.82324,-1.1006    -0.55371      8.9609,0  0  0,24.7858      120.9973      144.7947,0.2208252     -0.597168      144.7947,-41,6.75,
22:47:25:01,10302,24.8281,0.99986   0.0011879   0.0008977    0.016563,0.13781      0.1006      1.8982,0.088684    0.058594   0.0086975,-1.1592       -1.75     -1.9385,-1.2344     -1.6846      7.8555,0  0  0,24.7858      120.9973      144.8039,0.2338867    -0.6098633      144.8039,-43,6.25,
22:47:25:35,10303,24.8281,0.99978   0.0047483  0.00083448    0.020642,0.54597    0.084371       2.366,0.17871    0.070679  -0.0015478,-0.44385     0.75684    -0.92578,-0.43042       0.875      8.8516,0  0  0,24.7858      120.9973      144.8209,0.2498779    -0.5546875      144.8209,-43,6.5,
22:47:25:69,10304,24.8281,0.99976  8.1671e-05   0.0035856    0.021574,0.018221     0.41058      2.4724,-0.10962    0.041077   -0.017502,0.55371     0.10358   -0.035248,0.48511    0.072144      9.7578,0  0  0,24.78581      120.9973       144.795,0.2709961    -0.5371094       144.795,-43,5.75,
22:47:26:03,10305,24.8281,0.99976  -0.0022901   0.0017321    0.021716,-0.25806     0.20414      2.4883,0.0060501   -0.039337  -0.0086212,1.585      1.2109      1.9658,1.59961      1.08887      11.7656,0  0  0,24.78581      120.9973      144.7373,0.2854004    -0.5756836      144.7373,-44,6.5,
22:47:26:37,10306,24.7969,0.99964  6.6722e-05   -0.002179    0.026843,0.0009406    -0.24981      3.0763,0.0053253  -0.0058441   0.0080566,0.80322    -0.36743   -0.035522,0.82666    -0.40918        9.75,0  0  0,24.78581      120.9973      144.6441,0.2983398    -0.5595703      144.6441,-44,6.25,
22:47:26:71,10307,24.7969,0.9995   0.0016896 -3.1144e-05    0.031528,0.19341  -0.0096714      3.6135,0.0048904   -0.024506   0.0094681,0.23071    -0.27197    0.093384,0.21826    -0.25195      9.8828,0  0  0,24.78581      120.9973       144.529,0.314209    -0.5244141       144.529,-44,6,
22:47:27:05,10308,24.7969,0.99937   0.0034759   0.0022318     0.03536,0.40711      0.2415      4.0537,-0.015839     0.14807    0.027451,-0.024063    -0.20203    -0.78467,-0.088623    -0.13708      9.0078,0  0  0,24.78581      120.9973      144.4573,0.3327637     -0.527832      144.4573,-46,5.75,
22:47:27:39,10309,24.7969,0.99921   0.0019149  -0.0017978    0.039567,0.21111    -0.21454      4.5348,0.00084257   0.0024033 -0.00011623,0.90088     0.57324      1.0186,0.984863     0.540039      10.8047,0  0  0,24.78582      120.9973       144.392,0.3566895    -0.5825195       144.392,-46,6.75,
22:47:27:73,10310,24.7969,0.99912   0.0023051  0.00088604    0.041846,0.26817     0.09039      4.7968,0.044159     0.16577   -0.037445,-0.8125    0.015617   -0.034515,-0.83887     0.13354        9.75,0  0  0,24.78582      120.9973      144.3252,0.3510742    -0.6108398      144.3252,-50,6.25,
22:47:28:07,10311,24.7969,0.9991    0.001103  -0.0022103     0.04226,0.11558     -0.2584      4.8439,0.087219   -0.081116   0.0041962,0.64893     -1.4639     -1.6289,0.56689     -1.4902      8.1641,0  0  0,24.78582      120.9973      144.2916,0.3608398    -0.6069336      144.2916,-54,6.5,
22:47:28:41,10312,24.7656,0.99893  0.00073281   0.0019041    0.046311,0.093989     0.21407       5.309,-0.034729   -0.073425  0.00083017,-0.31738    -0.97266    -0.50684,-0.43286    -0.92725      9.2813,0  0  0,24.78582      120.9973      144.2795,0.3723145    -0.5727539      144.2795,-56,6,
22:47:28:75,10313,24.7656,0.99876   0.0015036   0.0013337    0.049713,0.17968     0.14407      5.6993,0.052582    0.016754  -0.0040703,-0.47461     -1.4639    -0.82178,-0.64063      -1.376      8.9688,0  0  0,24.78583      120.9973      144.3011,0.3864746    -0.5981445      144.3011,-63,7,
22:47:29:08,10314,24.7656,0.99893   0.0037478   0.0015077     0.04602,0.43697     0.15282       5.276,0.19678   -0.016617   -0.061676,-0.5127    -0.65088    -0.84326,-0.5918    -0.51514      8.9531,0  0  0,24.78583      120.9973       144.345,0.4013672    -0.6396484       144.345,-53,6.5,
22:47:29:43,10315,24.7188,0.99936   0.0017934  -0.0010715    0.035643,0.201    -0.13003       4.085,-0.059692     -0.1886    -0.11578,-0.026855   -0.056793     0.51904,0.0131989   -0.0245361      10.3047,0  0  0,24.78583      120.9973      144.3795,0.3774414    -0.6538086      144.3795,-52,6.75,
22:47:29:77,10316,24.7188,0.99975   0.0016875   0.0018707    0.022071,0.19805     0.21004      2.5298,-0.088745   -0.041443    -0.11414,-1.0488     0.50537   -0.077698,-1.0566      0.5752      9.7031,0  0  0,24.78583      120.9973      144.4298,0.375    -0.6196289      144.4298,-50,6,
22:47:30:11,10317,24.7188,0.99996  0.00075492   0.0027893   0.0086779,0.089279     0.31887     0.99467,0.098145     0.04953   -0.069214,-1.3477    -0.89502    -0.39355,-1.418    -0.84814      9.3906,0  0  0,24.78583      120.9973      144.5003,0.3693848    -0.6430664      144.5003,-51,5.75,
22:47:30:45,10318,24.7031,0.99994   0.0016391   0.0013742    0.011113,0.18957     0.15537      1.2738,0.022507     0.15674    0.026871,1.3506      0.8252     0.51709,1.32617     0.831055      10.3125,0  0  0,24.78584      120.9973      144.5737,0.3818359    -0.6455078      144.5737,-52,6.5,
22:47:30:79,10319,24.7031,0.99972   0.0018772  3.3074e-05     0.02372,0.21514  -0.0013137      2.7184,0.002552    0.040192    0.085815,-0.20032      1.0215     0.24121,-0.153198      1.06836      10.0234,0  0  0,24.78584      120.9973      144.6798,0.3828125    -0.6357422      144.6798,-53,6.75,
22:47:31:13,10320,24.7031,0.99928   0.0016895  7.1397e-05    0.037925,0.19377  0.00083331       4.347,-0.092529   -0.034271    0.083618,-0.52295     0.34399     -1.0557,-0.49121     0.40479      8.7344,0  0  0,24.78584      120.9973      144.7694,0.4082031    -0.5839844      144.7694,-53,7,
22:47:31:47,10321,24.6875,0.99818   -0.010377    -0.01172    0.058209,-1.2655     -1.2714      6.6889,0.11371    -0.38696    0.025345,3.4902     -3.4277      1.6523,3.36328     -4.05078      11.2734,0  0  0,24.78584      120.9973       144.817,0.4055176    -0.5722656       144.817,-53,6.25,
22:47:31:81,10322,24.6875,0.99804  0.00083214  -0.0010055    0.062589,0.087958    -0.12096      7.1768,0.25317     0.08783   -0.078186,-2.1934      1.3232    -0.44238,-1.999       1.623      9.3438,0  0  0,24.78584      120.9973      144.8557,0.4370117    -0.6357422      144.8557,-53,6.25,
22:47:32:15,10323,24.6875,0.99792    0.025644 -4.6294e-05    0.059094,2.9335    -0.17895      6.7733,0.77393      0.2771   -0.051727,1.6787      2.8262     -3.1699,2.0039      2.9941      6.4531,0  0  0,24.78585      120.9973      144.8346,0.4367676    -0.4641113      144.8346,-53,7.25,
22:47:32:49,10324,24.6563,0.99879  -0.0006761  -0.0036365    0.049093,-0.097841     -0.4124      5.6283,0.044403   -0.050629   -0.083191,0.33569     -1.6162     0.23718,0.254883     -1.65332      10.0234,0  0  0,24.78585      120.9973      144.8793,0.404541    -0.5981445      144.8793,-53,6.5,
22:47:32:83,10325,24.6563,0.9977  0.00011862  -0.0024086    0.067754,-0.0051394     -0.2763        7.77,0.040405     0.13391     0.19495,-0.08136    -0.38403    -0.67725,-0.10052    -0.36621      9.1094,0  0  0,24.78585      120.9973       144.929,0.4130859    -0.6870117       144.929,-54,6,
22:47:33:17,10326,24.6563,0.99534 -0.00059081  -0.0034934    0.096326,-0.105949    -0.391926      11.0558,0.033112    -0.14832    0.059265,-0.038544    -0.69629     -1.2441,-0.099854    -0.68896      8.5469,0  0  0,24.78585      120.9973      144.9284,0.4169922     -0.621582      144.9284,-56,6.25,
22:47:33:51,10327,24.6094,0.99522  -0.0016709  -0.0025592     0.09761,-0.219181    -0.273173      11.2037,-0.18591    -0.15845   -0.091003,0.4187     0.48267      2.2363,0.582031     0.324463      12.0234,0  0  0,24.78586      120.9973        144.96,0.4350586    -0.5869141        144.96,-57,6.5,
22:47:33:85,10328,24.6094,0.9963  0.00042756  0.00013127    0.085975,0.050106    0.010774      9.8642,-0.075378     0.14185   -0.073792,-1.4453     0.56934     -1.2354,-1.3398     0.80908      8.5547,0  0  0,24.78586      120.9973      145.0074,0.4335938    -0.5996094      145.0074,-60,6.5,
22:47:34:19,10329,24.5625,0.99596   0.0013989  -0.0037384    0.089743,0.121209    -0.441052      10.2972,-0.1004   -0.012764    0.026276,0.39941      3.0254      1.8145,1.02734      2.91797      11.5938,0  0  0,24.78586      120.9973      145.0163,0.4243164    -0.6425781      145.0163,-59,6,
22:47:34:53,10330,24.5625,0.99469    0.001682    -0.00404     0.10286,0.144106    -0.480316      11.8073,-0.011917    0.091858    0.019196,0.71582    -0.13184     0.12238,0.74854    -0.25171      9.9063,0  0  0,24.78586      120.9973      145.0335,0.4404297    -0.5947266      145.0335,-60,6.5,
22:47:34:87,10331,24.5625,0.99433    0.003141  -0.0022239     0.10625,0.330818    -0.291636      12.1972,0.0038586   -0.083618   -0.020889,-0.43555     0.45313    -0.53271,-0.27393     0.58887      9.2578,0  0  0,24.78586      120.9973      145.0068,0.4418945    -0.5893555      145.0068,-59,6.25,
22:47:35:21,10332,24.5469,0.99414    0.002055  -0.0035925     0.10799,0.189655    -0.434697      12.3979,0.12061     0.11047  0.00067472,-0.51709    -0.27612     0.85742,-0.493896    -0.110413      10.6484,0  0  0,24.78587      120.9973      144.9275,0.4404297    -0.5917969      144.9275,-64,6.5,
22:47:35:55,10333,24.5469,0.99387  0.00072856  -0.0029799      0.1105,0.0452448    -0.348601      12.6881,-0.27393    -0.14709    -0.16016,0.51221      2.7559    -0.52832,1.1719      2.5605      9.2578,0  0  0,24.78587      120.9973      144.9462,0.4350586    -0.5668945      144.9462,-63,6.5,
22:47:35:89,10334,24.5469,0.99266   0.0008711  -0.0024619     0.12095,0.064968     -0.29211      13.8934,0.070862    0.048676    0.051392,-0.32202    -0.24146     0.23804,-0.323242    -0.138184      10.0313,0  0  0,24.78587      120.9973       144.987,0.439209    -0.5917969       144.987,-62,6.5,
22:47:36:23,10335,24.5625,0.98976   0.0016067  -0.0026639     0.14274,0.138655    -0.328419      16.4128,0.036377    0.043884    0.064941,-0.43481     0.33789     -0.3811,-0.27051     0.47363      9.4063,0  0  0,24.78587      120.9973      145.0016,0.4375    -0.5996094      145.0016,-66,5.75,
22:47:36:57,10336,24.5625,0.98673   0.0011765  -0.0035933     0.16232,0.066192    -0.428181      18.6833,0.01973    -0.07019    0.057709,0.47583    -0.26685    -0.30078,0.4436    -0.39258      9.4844,0  0  0,24.78587      120.9973      145.0601,0.4619141    -0.6254883      145.0601,-70,5.75,
22:47:36:91,10337,24.5625,0.98555   0.0012172  -0.0011271     0.16939,0.115588    -0.150911      19.5043,0.022659   -0.095032   -0.033936,-0.091797     0.19031  -0.0077553,0.01313     0.23218      9.7813,0  0  0,24.78588      120.9973       145.086,0.4470215    -0.6206055       145.086,-65,5.75,
22:47:37:25,10338,24.5313,0.98575  0.00075551  -0.0020839     0.16818,0.0451807    -0.249956      19.3645,-0.096985   -0.014267   -0.031799,1.5518     0.71875     0.66748,1.75     0.161987      10.4453,0  0  0,24.78588      120.9973      145.1108,0.4448242    -0.5849609      145.1108,-63,6.5,
22:47:37:59,10339,24.5313,0.98717  0.00047732  0.00055447     0.15968,0.0641403     0.053989      18.3762,0.12195   -0.048431     -0.1615,0.25488     0.87451     0.26929,0.513184     0.773926      10.0547,0  0  0,24.78588      120.9973      145.0379,0.4338379    -0.5844727      145.0379,-63,6.5,
22:47:37:93,10340,24.5313,0.99095  -0.0065345   0.0033846     0.13401,-0.690089     0.484694      15.4001,0.27246      1.2891    -0.24854,4.5703      -4.582      3.1934,2.92773     -5.74609      12.9922,0  0  0,24.78588      120.9973      145.0356,0.4765625       -0.5625      145.0356,-62,6.5,
22:47:38:27,10341,24.4375,0.99298   0.0023322  0.00067994     0.11826,0.274586    0.0457641      13.5832,0.052246  -0.0069275   -0.069946,0.16479      1.2939     0.67041,0.457031      1.27441      10.4531,0  0  0,24.78588      120.9973      145.0205,0.3742676    -0.5922852      145.0205,-71,6.5,
22:47:38:61,10342,24.4375,0.99288   0.0042433 -0.00078257     0.11904,0.47212    -0.146923      13.6735,0.06189   -0.063232    0.042572,0.92334    -0.45386    -0.24561,0.8208     -0.5752      9.5469,0  0  0,24.78589      120.9973        144.98,0.3601074    -0.5883789        144.98,-64,6.25,
22:47:38:95,10343,24.4375,0.99111   0.0034376 -0.00028649     0.13301,0.386049   -0.0849338      15.2874,0.027069   -0.036926   -0.019287,-0.32471     0.30908    -0.24976,-0.21301     0.45093      9.5391,0  0  0,24.78589      120.9973      144.9183,0.3410645    -0.5917969      144.9183,-70,6.5,
22:47:39:29,10344,24.4063,0.99104   0.0015674 -0.00029219     0.13357,0.173528   -0.0571738      15.3523,-0.054565    0.012283   -0.038666,0.771      0.1427    -0.11328,0.79053   -0.042145      9.6719,0  0  0,24.78589      120.9973      144.8723,0.3740234     -0.637207      144.8723,-68,6.25,
22:47:39:63,10345,24.4063,0.99112  0.00032808   -0.002215     0.13299,0.00350679    -0.256564      15.2844,-0.036072    0.051819   -0.015282,0.1615    -0.80078     0.30859,-0.0142136    -0.817871      10.0938,0  0  0,24.78589      120.9973      144.8256,0.3703613    -0.6518555      144.8256,-78,5.25,
22:47:39:97,10346,24.4063,0.99044  0.00082817  -0.0043289     0.13788,0.0255966    -0.504405      15.8508,-0.097717    -0.11865   -0.010834,1.0342     0.46826      1.3818,1.23633     0.162109      11.1563,0  0  0,24.7859      120.9973      144.7578,0.3479004    -0.5898438      144.7578,-68,6.5,
22:47:40:31,10347,24.4063,0.98928   0.0026511  -0.0062053      0.1459,0.196809    -0.747796      16.7781,0.036621  -0.0083923    0.008316,-0.22693     0.19373     0.55225,-0.0242004     0.290527      10.3438,0  0  0,24.7859      120.9973      144.6942,0.3518066    -0.6206055      144.6942,-66,6.25,
22:47:40:65,10348,24.4063,0.98774   0.0022686  -0.0029848     0.15604,0.203417    -0.378404      17.9533,-0.0098801    0.071655    0.028397,-0.16187     0.10516     0.26685,-0.0611572     0.184814      10.0547,0  0  0,24.7859      120.9973      144.6451,0.3408203     -0.605957      144.6451,-64,6.25,
22:47:40:99,10349,24.4063,0.98558   0.0017391   -0.002759      0.1692,0.142918    -0.345321      19.4823,0.031403  -0.0074387    0.055969,0.10931     0.36426     0.11359,0.28638     0.33472      9.8984,0  0  0,24.7859      120.9973       144.617,0.3400879    -0.6157227       144.617,-64,6.25,
22:47:41:33,10350,24.4219,0.98406   0.0030243  9.0384e-05      0.1778,0.342881   -0.0514268      20.4834,0.22009     0.40576    0.030792,-0.39771   -0.027542     -5.4492,-0.39551     0.14917      4.3398,0  0  0,24.7859      120.9973      144.5898,0.3852539    -0.6020508      144.5898,-67,6,
22:47:41:67,10351,24.4219,0.98324   0.0024158  -0.0019113      0.1823,0.232261    -0.265817      21.0074,-0.032654    0.016205   0.0036697,-0.98242    -0.86963     -1.2119,-1.1895    -0.42725      8.5859,0  0  0,24.78591      120.9973      144.5694,0.3544922     -0.684082      144.5694,-68,6.5,
22:47:42:01,10352,24.4219,0.98181   0.0017309  -0.0037732     0.18981,0.112676    -0.462161      21.8833,-0.046082   -0.028519   2.265e-06,-0.12091     0.18604     -0.5542,0.035339     0.23169      9.2344,0  0  0,24.78591      120.9973      144.5643,0.3452148    -0.6401367      144.5643,-67,6.5,
22:47:42:35,10353,24.4688,0.9811 -6.0743e-05  -0.0038732     0.19348,-0.0927051    -0.434109      22.3121,-0.042877    0.029388   -0.013138,0.36157    -0.83057    0.047852,0.091858    -0.92578      9.8359,0  0  0,24.78591      120.9973      144.5345,0.3461914    -0.6835938      144.5345,-68,6.5,
22:47:42:69,10354,24.4688,0.98009   0.0011489  -0.0013601     0.19853,0.0980924    -0.178889      22.9022,-0.022461   -0.017349   -0.013718,-0.75977    -0.65869    -0.93213,-0.92627    -0.29761      8.8594,0  0  0,24.78591      120.9973      144.4925,0.338623    -0.6860352      144.4925,-65,6,
22:47:43:03,10355,24.4688,0.98063   0.0023217  -0.0029601     0.19585,0.194466    -0.384744      22.5883,-0.11353    -0.06189   -0.018372,0.18457     0.18005     0.96729,0.31958     0.119873      10.7578,0  0  0,24.78592      120.9973      144.4644,0.3352051    -0.6884766      144.4644,-63,6.5,
22:47:43:37,10356,24.4531,0.98096 -0.00021434  -0.0030018      0.1942,-0.0908967    -0.332667      22.3961,0.0088043   -0.036957   -0.034973,1.1553    -0.73926    -0.09668,0.84766     -1.1377      9.6875,0  0  0,24.78592      120.9973      144.4557,0.3310547    -0.6801758      144.4557,-62,6,
22:47:43:71,10357,24.4531,0.98128 -0.00018556  -0.0053312     0.19254,-0.138495    -0.595392      22.2026,-0.28369   -0.084839    0.018066,0.58105      3.4902      4.5859,2.02148      2.93555      14.3672,0  0  0,24.78592      120.9973      144.4725,0.3059082    -0.6303711      144.4725,-62,6.25,
22:47:44:05,10358,24.4531,0.98085   0.0011751  -0.0012382     0.19475,0.104449    -0.165398      22.4597,0.00077868    0.025543   -0.038483,-0.64453    -0.45093    -0.16772,-0.7417    -0.15283       9.625,0  0  0,24.78592      120.9973      144.5309,0.3127441    -0.6801758      144.5309,-67,5.5,
22:47:44:39,10359,24.4688,0.98188  -0.0001899 -0.00060924     0.18953,-0.0345983    -0.064424      21.8503,-0.0097809    0.059479    -0.04895,-0.35474    -0.88086    -0.45996,-0.65088    -0.69238      9.3281,0  0  0,24.78592      120.9973      144.5863,0.2702637    -0.6362305      144.5863,-64,6.25,
22:47:44:73,10360,24.4688,0.98174  -0.0018858   0.0026285     0.19021,-0.154864     0.336814      21.9293,0.013443    -0.12292   -0.053528,-1.4131    -0.20825      -1.168,-1.4277     0.31226      8.6172,0  0  0,24.78593      120.9973      144.6154,0.2459717    -0.6303711      144.6154,-72,6,
22:47:45:07,10361,24.5,0.98533 -6.2548e-05 -0.00040953     0.17066,-0.0150712   -0.0450165      19.6529,-0.1731     0.20569    -0.25854,0.10858     -5.2734     -4.6328,-1.665     -5.0156      5.1445,0  0  0,24.78593      120.9973      144.6785,0.2570801    -0.7055664      144.6785,-72,6,
22:47:45:41,10362,24.5,0.9891   0.0051168   0.0028953     0.14712,0.628784     0.241896      16.9218,0.29565     0.26929    -0.10217,-0.026611      0.7373     0.14966,0.12085     0.85156      9.9297,0  0  0,24.78593      120.9973      144.7105,0.2832031    -0.7880859      144.7105,-67,5.75,
22:47:45:75,10363,24.5,0.98858   0.0023835  0.00047741     0.15068,0.278249    0.0129293      17.3324,-0.030884   -0.014709     0.05246,-0.15149    -0.25659    -0.48267,-0.22083    -0.15723      9.3047,0  0  0,24.78593      120.9973      144.7531,0.2364502    -0.7788086      144.7531,-67,6.75,
22:47:46:09,10364,24.5156,0.98463    0.002508  -0.0033601     0.17458,0.215763    -0.429296       20.108,-0.087769    0.059814     0.10968,-0.2417      1.1475      1.3232,0.246948      1.19238      11.1094,0  0  0,24.78594      120.9973      144.8007,0.2408447    -0.7270508      144.8007,-71,5.75,
22:47:46:43,10365,24.5156,0.98113   0.0028846 -0.00039978     0.19334,0.315456    -0.108854      22.2949,0.0013475    0.063354   0.0055161,0.070068     0.17737   -0.025635,0.14563     0.19153      9.7656,0  0  0,24.78594      120.9973      144.8324,0.241333    -0.6801758      144.8324,-68,6.25,
22:47:46:77,10366,24.5156,0.98122   0.0028832  -0.0014336     0.19285,0.292507    -0.224908      22.2373,0.040924   -0.055756    0.016647,0.30127    -0.14526    -0.60986,0.26611    -0.19775      9.1797,0  0  0,24.78594      120.9973       144.875,0.2568359    -0.7226563       144.875,-67,6.5,
22:47:47:11,10367,24.5156,0.97708   0.0031735  -0.0030713     0.21283,0.280424    -0.421277      24.5755,0.052917    0.071106     0.16614,1.0674      2.1992      2.1152,1.96875      1.61719      11.8828,0  0  0,24.78594      120.9973      144.9433,0.2907715    -0.7495117      144.9433,-69,6.25,
22:47:47:45,10368,24.5156,0.97462   0.0010542  -0.0010662     0.22388,0.0903838    -0.146122      25.8735,-0.0060005     0.33008   -0.026657,-1.2637    -0.39478      3.7324,-1.31738     0.216797      13.5234,0  0  0,24.78594      120.9973       144.988,0.3125    -0.7426758       144.988,-65,6,
22:47:47:79,10369,24.5156,0.97877   0.0010153  -0.0015036     0.20497,0.0785604    -0.192488      23.6553,-0.068176   -0.063721    -0.12976,0.18396      1.4736       1.501,0.804688      1.28418      11.2891,0  0  0,24.78595      120.9973      145.0462,0.2883301    -0.7607422      145.0462,-69,6,
22:47:48:13,10370,24.5313,0.98047  0.00070616  -0.0026919     0.19664,0.0186804    -0.318362      22.6817,0.069763   -0.043213  0.00016141,-0.56445     -1.6865     0.57373,-1.1084     -1.32715      10.3672,0  0  0,24.78595      120.9973      145.1082,0.2634277    -0.8198242      145.1082,-66,6,
22:47:48:47,10371,24.5313,0.97846   0.0017838  -0.0017206      0.2064,0.159308    -0.235107      23.8231,0.030563   0.0079117  -0.0082626,-1.4248      1.1758     0.26782,-0.786133      1.68262      10.0547,0  0  0,24.78595      120.9973      145.1314,0.2539063    -0.7558594      145.1314,-71,6.25,
22:47:48:81,10372,24.5313,0.97889   0.0034073  -0.0031115     0.20433,0.309361    -0.428806      23.5795,0.022202   -0.027679   -0.056488,-0.35083    -0.18091    -0.83838,-0.32349    0.024979      8.9531,0  0  0,24.78595      120.9973      145.1718,0.246582    -0.7412109      145.1718,-74,6.25,
22:47:49:15,10373,24.5469,0.97861   0.0016739  -0.0031551     0.20569,0.113349    -0.393267      23.7393,-0.042084    0.069824    0.045563,0.42163     0.29956       1.458,0.577148     0.121765      11.2422,0  0  0,24.78596      120.9973      145.2084,0.269043    -0.7807617      145.2084,-68,6.25,
22:47:49:49,10374,24.5469,0.97667   0.0042457  -0.0024926     0.21469,0.413865    -0.383423      24.7932,0.0020847   -0.068054     0.06427,-0.27148      1.0635    -0.12097,0.27271      1.1494      9.6563,0  0  0,24.78596      120.9973      145.2273,0.260498    -0.7382813      145.2273,-66,6.25,
22:47:49:83,10375,24.5469,0.97383   0.0020326  -0.0072169     0.22714,0.0389899    -0.858297      26.2576,-0.21411    -0.18689    0.084717,0.11407     -1.2773      2.2422,-0.26001     -1.21289      12.0391,0  0  0,24.78596      120.9973      145.2637,0.2172852    -0.6982422      145.2637,-65,6.25,
22:47:50:17,10376,24.5625,0.97031   0.0016999  -0.0047022     0.24181,0.0587211    -0.569954       27.987,-0.051666    -0.15051   -0.039368,0.61377     -1.0459    -0.29956,0.16113      -1.207      9.4922,0  0  0,24.78596      120.9973      145.2821,0.2607422    -0.6870117      145.2821,-64,6,
22:47:50:51,10377,24.5625,0.97326   0.0019086  -0.0062462     0.22959,0.0485265    -0.746864      26.5466,-0.042786   -0.031006    -0.12354,-0.56592   -0.095398      0.4126,-0.411621     0.171631      10.2109,0  0  0,24.78596      120.9973       145.319,0.2661133    -0.7133789       145.319,-63,6.25,
22:47:50:85,10378,24.5625,0.97637   0.0033244  -0.0029872     0.21607,0.297991    -0.416533      24.9556,0.040222   -0.029053   -0.077759,-0.55029     -1.1699    -0.86084,-0.92383     -0.7793      8.9375,0  0  0,24.78597      120.9973      145.3596,0.2375488    -0.7138672      145.3596,-65,6.5,
22:47:51:19,10379,24.5469,0.97942   0.0016656  -0.0010149     0.20184,0.16346    -0.152429      23.2895,-0.040649   -0.067078    -0.12891,0.60791    0.012917     0.55273,0.599121    -0.202271      10.3438,0  0  0,24.78597      120.9973      145.3884,0.2563477    -0.7514648      145.3884,-65,6.25,
22:47:51:53,10380,24.5469,0.98283   0.0050534 -7.3456e-06     0.18446,0.568982    -0.107643       21.259,0.062622   -0.098633   -0.097473,-0.84521     0.27222    -0.24451,-0.66064     0.66064      9.5391,0  0  0,24.78597      120.9973      145.3862,0.2344971    -0.7856445      145.3862,-65,6.25,
22:47:51:87,10381,24.5469,0.98248   0.0057875  0.00037043     0.18628,0.659505   -0.0818391      21.4718,-0.095703   -0.018799    0.060394,-0.33594      1.3545     0.47437,0.202148      1.49121        10.25,0  0  0,24.78597      120.9973      145.3747,0.2329102    -0.7915039      145.3747,-63,6.75,
22:47:52:21,10382,24.5469,0.98106   0.0038327  -0.0022215     0.19366,0.381583    -0.334799       22.332,0.36816     -0.1554    0.022186,-0.12195     0.65674      -2.834,0.18921     0.72559      6.9453,0  0  0,24.78598      120.9973      145.3505,0.2376709     -0.784668      145.3505,-65,6.25,
22:47:52:55,10383,24.5469,0.98277  -0.0013517   0.0026835     0.18482,-0.0953911     0.330841      21.3012,-0.0091629     0.12512   -0.050659,0.082275    -0.94238     -1.4482,-0.323    -0.92236      8.3359,0  0  0,24.78598      120.9973       145.331,0.2268066     -0.784668       145.331,-66,6.25,
22:47:52:89,10384,24.5469,0.98333  4.7006e-05   0.0036413     0.18182,0.0811652     0.409332      20.9518,0.13721   -0.015022   -0.066162,-1.3721     -1.3252    -0.37061,-1.8193    -0.72119      9.4063,0  0  0,24.78598      120.9973      145.3449,0.2042236    -0.7885742      145.3449,-71,6,
22:47:53:23,10385,24.5625,0.9804 -4.7728e-05   0.0035731       0.197,0.0753035     0.402506       22.724,-0.10547   0.0024757    0.046082,0.18335    -0.32715   -0.050262,-0.025009    -0.36987      9.7422,0  0  0,24.78598      120.9973      145.4149,0.199585    -0.7270508      145.4149,-69,6.5,
22:47:53:57,10386,24.5625,0.98002 -0.00021459   0.0038111     0.19888,0.0627569     0.432891       22.943,-0.018677   -0.026718   -0.072754,0.031738     -1.2021     -1.7607,-0.49634     -1.1123      8.0234,0  0  0,24.78599      120.9973      145.4456,0.2263184    -0.7280273      145.4456,-72,6,
22:47:53:91,10387,24.5625,0.98323  -0.0016005  0.00074114     0.18238,-0.164843     0.116955       21.017,-0.080872   -0.017365    -0.10699,1.1689     -3.3535     -2.1035,-0.12262     -3.5781      7.6719,0  0  0,24.78599      120.9973      145.3983,0.2468262    -0.8110352      145.3983,-70,6,
22:47:54:25,10388,24.5156,0.98364 -0.00015317 -0.00029718     0.18014,-0.0233993   -0.0303358      20.7558,0.049866     0.08728    0.021637,0.67578      0.8208     0.93115,0.92041     0.528809      10.7188,0  0  0,24.78599      120.9973      145.3759,0.2587891    -0.8330078      145.3759,-70,6.5,
22:47:54:59,10389,24.5156,0.98069 -0.00090043  -0.0019804     0.19557,-0.145572    -0.202378      22.5561,-0.013123     0.11816    0.050995,1.9072     -1.1572      0.9126,1.34277     -1.83008      10.6953,0  0  0,24.78599      120.9973      145.3269,0.2546387    -0.7880859      145.3269,-73,6,
22:47:54:93,10390,24.5313,0.97799   0.0026438  -0.0021967     0.20862,0.24378    -0.309391      24.0829,0.32544    -0.43042     0.14014,2.1172    0.046356      4.7109,2.09375     -0.71582      14.4844,0  0  0,24.786      120.9973         145.3,0.2629395    -0.7612305         145.3,-74,6.5,
22:47:55:27,10391,24.5313,0.97635   0.0020959  0.00041952     0.21619,0.244889  -0.00498736      24.9709,0.035156 -6.7234e-05   -0.028809,0.16223     -2.0215      1.3867,-0.703613     -1.84863      11.1875,0  0  0,24.786      120.9973      145.2885,0.239624    -0.7177734      145.2885,-75,6,
22:47:55:61,10392,24.5313,0.97591   0.0020035   0.0013036     0.21816,0.256648     0.095701      25.2018,0.061188    0.051605   -0.012901,0.7627     0.37671     0.21716,0.82959    0.0670166      10.0078,0  0  0,24.786      120.9973      145.2911,0.2631836    -0.7329102      145.2911,-72,6.25,
22:47:55:95,10393,24.5313,0.97615  0.00039086   0.0016845     0.21707,0.0856234     0.178707      25.0743,0.045776    0.013084   -0.059448,0.57129     0.24011     0.82813,0.585938  -0.00349617      10.6172,0  0  0,24.786      120.9973      145.2797,0.2578125    -0.6870117      145.2797,-67,6,
22:47:56:29,10394,24.5313,0.98027 -0.00010277  -0.0002874     0.19766,-0.0180535   -0.0299563      22.7999,-0.016983    0.038788     -0.1698,0.45166     0.73682      1.1006,0.704102     0.500488      10.8906,0  0  0,24.78601      120.9973      145.3017,0.2094727    -0.6489258      145.3017,-67,6,
22:47:56:63,10395,24.5313,0.9897  0.00079738  -0.0050666     0.14306,0.00737244    -0.587694      16.4501,0.099915    -0.10626    -0.39722,1.2334      1.4551      1.3926,1.71875      1.06543      11.1641,0  0  0,24.78601      120.9973      145.3187,0.1358643    -0.5703125      145.3187,-69,6.5,
22:47:56:97,10396,24.5781,0.99876 -0.00080769  9.9336e-05    0.049845,-0.091872    0.015982      5.7141,0.015823    0.047668    -0.47217,-0.38354     0.57031     0.23962,-0.333984     0.590332      10.0313,0  0  0,24.78601      120.9973      145.3086,0.1025391    -0.5498047      145.3086,-71,6.25,
22:47:57:31,10397,24.5781,0.99825   -0.001836  0.00089444     -0.0591,-0.21608    0.089882     -6.7764,0.020767    0.028107      -0.625,0.20947    -0.56055    -0.10846,0.26074    -0.56445      9.6797,0  0  0,24.78601      120.9973      145.3204,0.04879761    -0.5009766      145.3204,-70,6,
22:47:57:65,10398,24.5781,0.98261  -0.0024566  -0.0014671    -0.18567,-0.245394    -0.217455     -21.3997,-0.20276     0.15332    -0.59717,1.9609     0.16235      1.0117,1.78711     0.809082      10.8047,0  0  0,24.78601      120.9973      145.3165,0.0380249    -0.4228516      145.3165,-71,6,
22:47:57:99,10399,24.5625,0.95044  -0.0053181    0.002156    -0.31085,-0.656017    0.0453876     -36.2213,-0.092712   -0.092041    -0.55469,-0.40063    -0.19714      1.3535,-0.201294    -0.534668      11.1406,0  0  0,24.78601      120.9973      145.2985,-0.04586792    -0.3996582      145.2985,-88,-2,
22:47:58:33,10400,24.5625,0.91915   -0.002604    0.001796    -0.39389,-0.355336    0.0716322     -46.3945,-0.060303    0.096924    -0.39868,-0.50635    -0.24695    -0.22241,-0.18823    -0.60254      9.5625,0  0  0,24.78601      120.9973      145.2925,-0.1428223    -0.4091797      145.2925,-80,6.25,
22:47:58:67,10401,24.5625,0.8982   -0.005201  0.00046739    -0.43955,-0.558876    -0.213864     -52.1504,-0.075073    0.054321    -0.37256,0.83398     -2.8418      4.3711,2.80664     -1.22363      14.1406,0  0  0,24.78602      120.9973      145.2907,-0.1868896    -0.3974609      145.2907,-79,5.25,
22:47:59:01,10402,24.5625,0.86891 -0.00088325  -0.0010923    -0.49497,-0.0259872    -0.158862     -59.3358,-0.037964   -0.039246    -0.46899,0.46216     0.29395    0.032532,0.012512     0.53955      9.8203,0  0  0,24.78602      120.9973      145.3156,-0.267334    -0.4016113      145.3156,-74,6.25,
22:47:59:35,10403,24.5625,0.83393  0.00042227  -0.0029932    -0.55186,0.229643    -0.259338     -66.9897,-0.021515    0.069519    -0.35181,-0.078918     0.78906     -1.3359,-0.72461     0.26563      8.4531,0  0  0,24.78602      120.9973      145.3461,-0.3674316    -0.3674316      145.3461,-66,6,
22:47:59:69,10404,24.5625,0.8088  -0.0027577  -0.0021221    -0.58808,-0.11258    -0.382524     -72.0418,-0.15149     0.10938    -0.43945,-0.73193      -1.209      0.2937,0.986328     -1.09961      10.0703,0  0  0,24.78602      120.9973      145.3484,-0.5253906    -0.4030762      145.3484,-67,6.5,
22:48:00:03,10405,24.5625,0.76972  -0.0019446  -0.0024411    -0.63838,0.00705358    -0.357575     -79.3428,-0.012733   0.0013132    -0.42163,-0.91602    -0.88623     0.18689,0.76904     -1.0605      9.9688,0  0  0,24.78602      120.9973      145.3765,-0.5444336    -0.3171387      145.3765,-69,6.75,
22:48:00:37,10406,24.5625,0.7294 -0.00076505  -0.0026436    -0.68408,0.143288    -0.280931      -86.328,-0.080811    0.023651    -0.29199,-0.073486     0.32935    -0.22266,-0.2876   -0.036652      9.5703,0  0  0,24.78602      120.9973      145.4022,-0.5708008    -0.2230225      145.4022,-70,6,
22:48:00:71,10407,24.5625,0.74953  -0.0020694  -0.0022505    -0.66197,-0.00702237    -0.350273     -82.9007,-0.040009    -0.14758     0.27808,0.16675     0.38232    -0.58691,-0.28711     0.20886      9.2031,0  0  0,24.78602      120.9973      145.4117,-0.6166992    -0.2026367      145.4117,-66,6,
22:48:01:05,10408,24.5781,0.7937  -0.0024842  -0.0038131    -0.60829,0.0398493    -0.519971     -74.9334,0.19666    0.083191     0.43799,0.36304     -1.4932     0.40869,1.62207   -0.0178986      10.1875,0  0  0,24.78602      120.9973      145.4307,-0.5629883    -0.2805176      145.4307,-69,6.5,
22:48:01:40,10409,24.5781,0.81211 -0.00098622 -0.00061683    -0.58351,-0.050534    -0.123347     -71.3952,-0.080139     0.33691   -0.025665,-1.6543      1.8027     -2.9297,-2.2441     -1.0039      6.8555,0  0  0,24.78602      120.9973      145.4467,-0.5166016    -0.3483887      145.4467,-72,5.75,
22:48:01:74,10410,24.5781,0.80162  -0.0012763  -0.0034633    -0.59783,0.120021    -0.405573       -73.43,-0.040771   -0.011177    -0.13611,0.64844      0.1322      1.1797,0.137573     0.677734      10.9688,0  0  0,24.78602      120.9973      145.4563,-0.5595703    -0.3242188      145.4563,-76,5.75,
22:48:02:08,10411,24.5625,0.79573  2.8074e-05  -0.0034001    -0.60564,0.238535    -0.308085     -74.5514,-0.037323 -0.00029254    -0.01947,0.33936    -0.24109     0.39819,0.378662     0.301758      10.1875,0  0  0,24.78602      120.9973      145.4493,-0.5942383    -0.3171387      145.4493,-71,5.75,
22:48:02:42,10412,24.5625,0.80797  0.00078163  -0.0030011    -0.58922,0.275006    -0.225087     -72.2044,-0.01001     0.15771     0.19519,0.96729    -0.85596      1.5469,1.14063     0.710449      11.3281,0  0  0,24.78602      120.9973      145.4146,-0.6210938    -0.3549805      145.4146,-73,6.25,
22:48:02:76,10413,24.5625,0.82636   0.0024886   -0.001978    -0.56313,0.363298   -0.0267182     -68.5462,0.12695    0.051178    0.074463,-0.51025    -0.60547    -0.80615,0.37671    -0.62793      8.9844,0  0  0,24.78602      120.9973      145.3952,-0.5834961    -0.3842773      145.3952,-75,6.5,
22:48:03:10,10414,24.5781,0.80979   0.0013024  -0.0029791    -0.58671,0.321146     -0.18888     -71.8494,0.092896       0.112    -0.27075,-0.58594     0.97852     0.88037,-1.08789    -0.184937      10.6719,0  0  0,24.78602      120.9973      145.3714,-0.5825195    -0.3654785      145.3714,-74,6.5,
22:48:03:44,10415,24.5781,0.7809  -0.0033407  -0.0024633    -0.62464,-0.122627    -0.459558     -77.3121,-0.19202     0.66992    -0.35889,4.0547     -3.9629      2.4863,4.76563      3.05469      12.2813,0  0  0,24.78602      120.9973      145.3483,-0.5522461    -0.3603516      145.3483,-73,6.25,
22:48:03:78,10416,24.5781,0.73708 -0.00061003  0.00015935    -0.67581,-0.0638651   -0.0337834      -85.034,-0.10352    0.037903    -0.50049,-0.21619     0.57422    -0.55322,-0.58691    -0.18823      9.2344,0  0  0,24.78602      120.9973      145.3288,-0.5068359         -0.25      145.3288,-70,6.25,
22:48:04:12,10417,24.5469,0.65754  -0.0030004   0.0015781    -0.75342,-0.362326    -0.140131     -97.7745,0.072632     0.24475    -0.75977,-1.3867     -1.4072      1.1035,1.59277     -1.23242      10.8828,0  0  0,24.78602      120.9973      145.3165,-0.3684082    -0.1960449      145.3165,-78,4.75,
22:48:04:46,10418,24.5469,0.54661   0.0011974 -0.00084039    -0.83739,0.1556449    0.06226117     -113.7301,0.099976     0.17505    -0.73193,-0.37891      1.1143    -0.51074,-0.88721    -0.76709      9.2813,0  0  0,24.78602      120.9973      145.2884,-0.3781738    -0.1122437      145.2884,-89,-4.25,
22:48:04:80,10419,24.5469,0.43888   0.0018254  -0.0004219    -0.89854,0.1352474     0.1667394     -127.9346,0.0087814   -0.024857    -0.72559,0.27124     0.70703     -0.4187,-0.74707      -0.203      9.3672,0  0  0,24.78602      120.9973      145.2894,-0.4030762    0.02250671      145.2894,-76,5.75,
22:48:05:14,10420,24.5625,0.32731   0.0050987  -0.0004091     -0.9449,0.2355474     0.5367395     -141.7867,0.0057983    0.044464    -0.68604,-0.36304     0.95117     -1.0195,-0.38184    -0.93799      8.7734,0  0  0,24.78602      120.9973      145.3064,-0.3337402    0.09002686      145.3064,-78,5.5,
22:48:05:48,10421,24.5625,0.23926   0.0046758 -0.00043165    -0.97095,0.1762303     0.5084166     -152.3136,0.045929    0.010033    -0.62158,-0.54639     0.92334     0.28345,-0.0278625     -1.03613      10.0781,0  0  0,24.78602      120.9973        145.32,-0.2905273     0.1595459        145.32,-75,6.5,
22:48:05:82,10422,24.5469,0.17927    0.001567   0.0012388     -0.9838,-0.1074635     0.2021005     -159.3455,0.052795     0.23059    -0.26709,-0.057953     -1.0059      1.9902,0.339355     0.905762      11.7813,0  0  0,24.78601      120.9973      145.3343,-0.2683105     0.3293457      145.3343,-74,6.75,
22:48:06:16,10423,24.5469,0.20975   0.0019763   0.0024099    -0.97775,-0.2225104     0.2793539     -155.7848,-0.33398    0.048187      0.1748,1.6973     -1.9346      1.9863,-0.811035      2.37695      11.7891,0  0  0,24.78601      120.9973      145.2562,-0.3164063     0.4482422      145.2562,-72,5.75,
22:48:06:50,10424,24.5469,0.25092   0.0024042   0.0025466      -0.968,-0.2133597     0.3399159     -150.9363,-0.03186   -0.091003     0.11859,-0.81689      -1.248      1.3623,1.2666     0.646973      11.1563,0  0  0,24.78601      120.9973      145.2252,-0.4033203     0.4462891      145.2252,-69,6.5,
22:48:06:84,10425,24.4531,0.27613   0.0041367   0.0018727    -0.96111,-0.07535516     0.5148616     -147.9413,0.03949      0.0979    0.032593,-0.90039    -0.69775    0.079834,1.0361      0.1037      9.8828,0  0  0,24.78601      120.9973      145.1998,-0.4309082     0.3791504      145.1998,-70,6.5,
22:48:07:18,10426,24.4531,0.24956   0.0016364   0.0031481    -0.96835,-0.3025359     0.2716098     -151.0981,0.10107   -0.044952    -0.35107,0.22998      1.0645    -0.58008,-0.75146    -0.86182      9.2031,0  0  0,24.78601      120.9973      145.1839,-0.3996582     0.3894043      145.1839,-66,6,
22:48:07:52,10427,24.4531,0.20513  -0.0012296    0.006882    -0.97871,-0.8007567    0.02386616     -156.3256,-0.071716    -0.10559    -0.24243,-0.87012    -0.12476      1.0127,0.855957    -0.391846      10.7969,0  0  0,24.78601      120.9973      145.1609,-0.388916     0.4655762      145.1609,-72,5.75,
22:48:07:86,10428,24.4219,0.18107   0.0009442   0.0042092    -0.98346,-0.4547792     0.1937475      -159.136,0.12537    0.036835    -0.10767,1.7598      1.1367    -0.74121,-2.082    -0.49756      9.0391,0  0  0,24.786      120.9973      145.1696,-0.3564453     0.5273438      145.1696,-76,5.75,
22:48:08:20,10429,24.4219,0.16706  -0.0003891   0.0015133    -0.98595,-0.1784231   -0.01499021     -160.7658,0.11029   -0.061005    -0.17017,0.47681    -0.56006      1.5703,-0.255371     0.662598      11.3594,0  0  0,24.786      120.9973      145.1648,-0.3374023     0.5170898      145.1648,-75,5.75,
22:48:08:54,10430,24.4219,0.15896   -0.001856 -0.00064482    -0.98728,0.0391439    -0.2217186     -161.7066,-0.18347    -0.00494     0.14966,2.0313      -6.668      7.1719,0.245117      6.94922      16.9688,0  0  0,24.786      120.9973      145.1394,-0.3171387      0.609375      145.1394,-67,6.75,
22:48:08:88,10431,24.4063,0.21435  -0.0028872   -0.002352    -0.97675,0.192344     -0.380927     -155.2451,-0.2019     0.30493     0.15222,-0.29883     -1.3457     -0.7832,0.87012      1.1074           9,0  0  0,24.786      120.9973      145.1418,-0.3618164     0.5415039      145.1418,-67,5.75,
22:48:09:22,10432,24.4063,0.27057  -0.0019629 -0.00071432     -0.9627,0.01794288    -0.2386879     -148.6037,0.2522    0.020172     0.18896,0.10687       0.271     -1.4902,-0.19897    -0.15161      8.2969,0  0  0,24.78599      120.9973      145.1854,-0.4213867     0.5063477      145.1854,-75,6,
22:48:09:56,10433,24.4063,0.28425  -0.0070213   0.0039917    -0.95872,-0.6672886    -0.6413576     -146.9668,-0.15894   -0.054962    0.055511,-0.3833      2.0332     0.98877,-0.660645     -2.05469      10.7578,0  0  0,24.78599      120.9973      145.2016,-0.4294434     0.4963379      145.2016,-68,6.75,
22:48:09:90,10434,24.4063,0.31579  -0.0041077   0.0019918    -0.94882,-0.3652208    -0.3745388     -143.1814,0.048615    0.029388     0.18555,0.058655     -1.4404     0.86719,0.886719      1.12402      10.6563,0  0  0,24.78599      120.9973      145.2105,-0.4597168     0.4697266      145.2105,-72,5.75,
22:48:10:24,10435,24.4063,0.34273  -0.0012977   0.0031257    -0.93943,-0.3874524   -0.01693332     -139.9126,0.059967   -0.013054    0.036865,0.044556      0.8418    -0.10468,-0.57129    -0.67432      9.6797,0  0  0,24.78599      120.9973      145.2357,-0.4848633     0.4318848      145.2357,-69,6.75,
22:48:10:58,10436,24.4063,0.34367 -3.6643e-06   0.0009816    -0.93909,-0.1057754    0.03826297     -139.7983,0.063293    0.089417   -0.014366,0.02977    -0.14124     0.53467,0.0534973     0.114746      10.3203,0  0  0,24.78598      120.9973      145.2937,-0.4914551     0.4179688      145.2937,-71,6,
22:48:10:92,10437,24.3906,0.33883  -0.0073676   0.0010407    -0.94082,-0.3982989    -0.7539115     -140.3853,0.21143    -0.28247   -0.035309,-7.6602      2.2188      3.7754,4.70703     -6.65625      13.4609,0  0  0,24.78598      120.9973      145.3462,-0.5083008     0.4550781      145.3462,-74,6.25,
22:48:11:26,10438,24.3906,0.33222   0.0015242  -0.0023454     -0.9432,0.3115222    0.07545656     -141.1931,-0.16028    0.058411   -0.036469,-1.1758       1.377     0.95996,0.0347595     -1.76855      10.7578,0  0  0,24.78598      120.9973      145.3778,-0.4638672     0.4257813      145.3778,-70,6,
22:48:11:60,10439,24.3906,0.3269  0.00057625  -0.0027974    -0.94505,0.3245288   -0.04238479     -141.8381,-0.76123    0.025009     -0.3396,6.7578     -6.5352    -0.34302,-1.2988      9.2891      9.4609,0  0  0,24.78598      120.9973      145.3886,-0.357666     0.3666992      145.3886,-69,6.5,
22:48:11:94,10440,24.4063,0.30395   0.0039718  0.00037155    -0.95268,0.09777972     0.4465401     -144.6089,-0.092163    -0.15955    -0.21497,0.22485    -0.26733     -1.1719,-0.081726     0.35474      8.6172,0  0  0,24.78598      120.9973      145.3758,-0.4311523     0.4619141      145.3758,-68,7.25,
22:48:12:28,10441,24.4063,0.29463   0.0046545    0.002579     -0.9556,-0.1252762     0.5967685     -145.7297,0.013939    -0.11469  -0.0022774,0.70215     -1.2539    -0.61865,0.042114      1.4131      9.1719,0  0  0,24.78597      120.9973      145.3804,-0.440918     0.5351563      145.3804,-68,6.75,
22:48:12:62,10442,24.4063,0.29876   0.0036098   0.0062663     -0.9543,-0.5617125     0.6092933     -145.2357,0.0026093    0.017578    0.015625,-0.25659     -1.6221      1.8223,1.01172      1.07227      11.6328,0  0  0,24.78597      120.9973      145.3888,-0.4543457     0.5620117      145.3888,-65,6.5,
22:48:12:96,10443,24.4375,0.29703   0.0034536   0.0037829    -0.95486,-0.296383     0.5066535     -145.4426,-0.021378   -0.071716    -0.10602,0.604    0.085266    -0.23792,-0.62256     0.22058      9.5469,0  0  0,24.78597      120.9973      145.3729,-0.4438477     0.5673828      145.3729,-66,6.75,
22:48:13:30,10444,24.4375,0.27919    0.003647   0.0027179    -0.96022,-0.1823894     0.4882504     -147.5764,0.043365   -0.031342    -0.12915,0.72998      1.5518    -0.75146,-1.5195    -0.94434      9.0234,0  0  0,24.78597      120.9973      145.3686,-0.3901367     0.5654297      145.3686,-64,6,
22:48:13:64,10445,24.4375,0.25961   0.0030306 -0.00044354    -0.96571,0.1392413     0.3221768     -149.9059,-0.019455   -0.059631     -0.1145,0.82813     0.36304     -1.5283,-0.93945     0.11902      8.2578,0  0  0,24.78596      120.9973      145.3464,-0.3557129     0.5644531      145.3464,-69,6.75,
22:48:13:98,10446,24.4531,0.253     0.00441  -0.0011944    -0.96745,0.2602752     0.4542813     -150.6881,-0.0495  -0.0056801   -0.034332,-0.034241     0.26855    -0.77979,-0.17139    -0.21423      9.0078,0  0  0,24.78596      120.9973      145.3159,-0.3305664     0.5761719      145.3159,-65,6.25,
22:48:14:32,10447,24.4531,0.25164   0.0027744  0.00012928    -0.96782,0.06566721     0.3114257     -150.8502,0.012032   -0.007122   -0.019135,-1.2637    -0.91602     0.53516,1.49512     0.197754      10.3281,0  0  0,24.78596      120.9973      145.2934,-0.3137207     0.5532227      145.2934,-67,6.5,
22:48:14:66,10448,24.4531,0.26595   0.0045858   0.0015906    -0.96398,-0.03595069     0.5550482     -149.1535,-0.089844    -0.24561     0.14307,1.2559    -0.91162     0.28198,-0.680176      1.41211      10.0703,0  0  0,24.78596      120.9973      145.2676,-0.3256836     0.6025391      145.2676,-66,6,
22:48:15:00,10449,24.4531,0.2764   0.0062192   0.0023991    -0.96102,-0.06722464     0.7608993     -147.9091,0.080872     0.25928   -0.048187,2.7969      1.3662    -0.43091,-3.2441     0.32422      9.3047,0  0  0,24.78596      120.9973      145.2575,-0.3320313     0.5600586      145.2575,-67,6,
22:48:15:34,10450,24.4531,0.27644  0.00086774 -0.00096077    -0.96103,0.1332947    0.06512563      -147.904,0.36523    -0.30103   -0.019897,-2.457      5.2422     -8.5938,-0.70166     -5.7383      1.2275,0  0  0,24.78595      120.9973      145.2358,-0.3581543     0.6723633      145.2358,-68,6.75,
22:48:15:68,10451,24.4063,0.28218   0.0037443   0.0022581    -0.95935,-0.1271702     0.4846451     -147.2199,-0.15149   -0.057495   -0.047119,1.3096    -0.90332    0.018188,-0.68848      1.4316      9.8047,0  0  0,24.78595      120.9973      145.2098,-0.3481445     0.6069336      145.2098,-66,6.25,
22:48:16:02,10452,24.4063,0.27177  -0.0017788   0.0063715    -0.96234,-0.7580415   0.002266474     -148.4595,-0.25781  -0.0086365   -0.090332,1.0547      2.0195      2.1035,-1.95215     -1.35742       11.875,0  0  0,24.78595      120.9973      145.2277,-0.3588867     0.6689453      145.2277,-71,6,
22:48:16:36,10453,24.4063,0.27198 -0.00049864  -0.0011799     -0.9623,0.1145689   -0.09175961     -148.4356,0.11719    0.029419   -0.025238,-1.8936      1.2588      -1.623,0.96631     -2.0371      8.1719,0  0  0,24.78595      120.9973      145.2533,-0.3608398     0.6508789      145.2533,-70,5.75,
22:48:16:71,10454,24.3906,0.27764   0.0034514  -0.0035506    -0.96067,0.5006836     0.2669921     -147.7601,0.073669    0.048035     0.04422,0.40137      2.1367     -1.5928,-1.5205     -1.5137      8.2031,0  0  0,24.78594      120.9973      145.2619,-0.3391113     0.6469727      145.2619,-84,3.25,
22:48:17:05,10455,24.3906,0.28881   0.0024074  -0.0042168    -0.95737,0.542297     0.1245556     -146.4258,-0.026047  -0.0039482    0.071594,0.091003     -1.3047      1.0322,0.625      1.23633      10.8125,0  0  0,24.78594      120.9973      145.3052,-0.3671875     0.6499023      145.3052,-68,6.75,
22:48:17:39,10456,24.3906,0.29688   0.0053467    -0.00569    -0.95488,0.804546     0.3914798     -145.4559,-0.0041962    0.066589   -0.015465,0.28418     0.12891     -0.7915,-0.37354     0.18103      8.9922,0  0  0,24.78594      120.9973      145.3737,-0.3618164     0.6328125      145.3737,-64,7,
22:48:17:73,10457,24.4375,0.29658   0.0038578  -0.0034621    -0.95499,0.5099984     0.3045201     -145.4939,-0.012192     0.03595    -0.01619,0.23132      0.3064    -0.17346,-0.41772   -0.036957      9.6172,0  0  0,24.78594      120.9973      145.3943,-0.3630371     0.6582031      145.3943,-61,5.75,
22:48:18:07,10458,24.4375,0.30033  0.00071998  -0.0015706    -0.95383,0.1964528    0.02463969     -145.0447,0.0016518    0.053436    0.020508,0.59814     0.25903    0.097168,-0.64697     0.16492      9.8828,0  0  0,24.78593      120.9973      145.4357,-0.3710938     0.6796875      145.4357,-60,6.25,
22:48:18:41,10459,24.4375,0.30741 -0.00082107   -0.001366    -0.95157,0.1200268    -0.1376508     -144.1932,0.010193    0.031052    0.017166,-0.64893    -0.51904      1.0449,0.853516    0.0650635      10.8359,0  0  0,24.78593      120.9973      145.4546,-0.375     0.6777344      145.4546,-63,6.5,
22:48:18:75,10460,24.4219,0.30888  -0.0015895  -0.0020548     -0.9511,0.1676833    -0.2459688     -144.0169,-0.062744   0.0089111   -0.029602,-0.44043     0.79541    -0.26392,-0.069702    -0.88037      9.5313,0  0  0,24.78593      120.9973       145.453,-0.3205566     0.6328125       145.453,-67,5.75,
22:48:19:08,10461,24.4219,0.30771  0.00080995  -0.0020495    -0.95148,0.2520242    0.01604137     -144.1573,0.0097046   -0.013252   0.0054665,0.68311     0.78711     -1.3164,-1.0146    -0.19958      8.4766,0  0  0,24.78592      120.9973      145.4161,-0.324707     0.6489258      145.4161,-69,7,
22:48:19:42,10462,24.4219,0.31016  -0.0013818 -0.00022563    -0.95068,-0.0245314    -0.1585543     -143.8622,-0.085999  -0.0065155   -0.010963,-0.17151     -1.0859      1.3496,0.811523     0.761719      11.1406,0  0  0,24.78592      120.9973      145.4011,-0.3181152     0.6655273      145.4011,-68,6.5,
22:48:19:77,10463,24.4375,0.31095   0.0040255  -0.0031964    -0.95041,0.491573     0.3245207     -143.7653,0.23584   -0.021622   -0.034821,5.0391     0.67041     -3.8125,-4.4922       2.502      5.9258,0  0  0,24.78592      120.9973       145.395,-0.302002     0.6855469       145.395,-69,6.5,
22:48:20:11,10464,24.4375,0.31074  -0.0093048   0.0025304    -0.95045,-0.6070117     -0.923346      -143.786,0.036285  -0.0043335   -0.030518,-6.375      -2.334      2.0977,6.71484     -2.00195      11.7578,0  0  0,24.78592      120.9973      145.3797,-0.34375     0.6796875      145.3797,-69,6.75,
22:48:20:45,10465,24.4375,0.30585   -0.001131   0.0013904    -0.95208,-0.1913275   -0.07465809     -144.3816,0.18567    0.051178   -0.057709,-1.292      -2.084     0.94775,2.27344     0.927246      10.7344,0  0  0,24.78592      120.9973      145.3198,-0.3425293     0.7089844      145.3198,-63,6.5,
22:48:20:79,10466,24.4531,0.29958   0.0011112  -0.0031279    -0.95407,0.380115    0.01411256     -145.1354,0.17346   -0.051666     0.01123,1.04    -0.21997    0.024872,-0.72363     0.85791      9.8047,0  0  0,24.78591      120.9973       145.272,-0.3125     0.7319336       145.272,-63,6.5,
22:48:21:13,10467,24.4531,0.29819  -0.0011926  -0.0055763    -0.95449,0.5691887    -0.3209877     -145.3036,0.17065     0.44995   -0.038086,-3.0254     -1.5576     -1.0527,3.3848    -0.33911      8.7344,0  0  0,24.78591      120.9973       145.224,-0.2961426     0.6796875       145.224,-63,6.25,
22:48:21:47,10468,24.4531,0.29865   0.0012428  -0.0039613    -0.95435,0.4757542  0.0003504482     -145.2466,-0.01194    0.085632   -0.014877,2.1367     0.47705    -0.25806,-2.0352     0.90479      9.5234,0  0  0,24.78591      120.9973      145.1858,-0.2617188     0.7128906      145.1858,-64,6.25,
22:48:21:81,10469,24.4844,0.29884  0.00016584  -0.0041126     -0.9543,0.4554167    -0.1226976     -145.2248,0.12274   -0.007988   -0.045807,-0.72461     0.23279    -0.96191,0.48315    -0.52344      8.8281,0  0  0,24.78591      120.9973      145.1581,-0.2580566     0.7055664      145.1581,-66,6.25,
22:48:22:15,10470,24.4844,0.30061   0.0026838 -0.00070931    -0.95374,0.1699731     0.2688816     -145.0109,0.002018   -0.024445   -0.017334,-0.03241    -0.52881     0.29858,0.286133     0.445068      10.0859,0  0  0,24.7859      120.9973      145.1456,-0.2629395     0.7182617      145.1456,-72,6,
22:48:22:49,10471,24.4844,0.30102   0.0017049  -0.0016683    -0.95362,0.241122     0.1287596     -144.9622,0.030136    0.016327   -0.028625,0.075928    -0.67969    0.019272,0.30542     0.64453      9.8047,0  0  0,24.7859      120.9973       145.113,-0.2307129     0.6938477       145.113,-79,5,
22:48:22:83,10472,24.4844,0.30115  -0.0015787  -0.0014307    -0.95358,0.1018596    -0.2218755     -144.9472,-0.11005    0.041138   0.0065994,-1.043     0.90039      -0.896,0.36816     -1.3301      8.8906,0  0  0,24.7859      120.9973      145.0746,-0.2342529     0.7109375      145.0746,-69,6.25,
22:48:23:17,10473,24.4844,0.30669  -0.0011296   -0.002909     -0.9518,0.2775845    -0.2254337     -144.2803,0.031799   -0.046082    0.011543,0.72705    -0.38159     0.50928,-0.320557     0.787598      10.2969,0  0  0,24.7859      120.9973      145.0467,-0.2250977     0.7241211      145.0467,-68,6.5,
22:48:23:51,10474,24.4844,0.31114  -0.0018819  -0.0034002    -0.95036,0.3032051    -0.3261769     -143.7449,-0.034546     0.19507 -0.00060511,-0.84668    -0.50781    0.038147,1.0205   -0.042603      9.8203,0  0  0,24.78589      120.9973      145.0098,-0.2496338     0.7416992      145.0098,-64,6.5,
22:48:23:85,10475,24.5469,0.31269  0.00052246  -0.0036295    -0.94985,0.4137798   -0.07318621     -143.5569,-0.017212    -0.10974   -0.015747,0.87158     -0.7041     0.42114,-0.257568      1.15625      10.2031,0  0  0,24.78589      120.9973      144.9811,-0.2252197          0.75      144.9811,-67,6.25,
22:48:24:19,10476,24.5469,0.3194   0.0032005  -0.0026074    -0.94761,0.4002732     0.2521027     -142.7459,-0.14026    0.070251     0.06543,3.5098    -0.10449    -0.93555,-2.7734      2.2598      8.8281,0  0  0,24.78589      120.9973      144.9541,-0.2216797     0.7592773      144.9541,-64,7,
22:48:24:53,10477,24.5469,0.33665   0.0012932  -0.0025774    -0.94163,0.327996    0.04011479     -140.6543,0.032562     0.10706     0.10809,1.5244       2.709     -2.8027,-2.9082      -1.082      6.9883,0  0  0,24.78589      120.9973      144.9466,-0.2802734     0.8061523      144.9466,-66,6.25,
22:48:24:87,10478,24.5313,0.34917  -0.0025478  -0.0019511    -0.93706,0.1075704    -0.3516535     -139.1276,0.16028     0.42065   0.0058594,-4.3398     0.74561     -1.9434,2.8086      -3.377      7.8516,0  0  0,24.78588      120.9973      144.9298,-0.286377       0.71875      144.9298,-64,6.25,
22:48:25:21,10479,24.5313,0.34115  0.00021317  -0.0018872    -0.94001,0.2116164   -0.05081233     -140.1067,0.041351    -0.12012   -0.086914,-1.5322     0.76465     -1.1123,0.70508     -1.5332      8.6797,0  0  0,24.78588      120.9973      144.9508,-0.2832031     0.7973633      144.9508,-62,6.25,
