UTC,Pack_count,IMUTemp,q0,q1,q2,q3,Roll,Pitch,Yaw,RollRate,PitchRate,YawRate,AccX,AccY,AccZ,RealAccX,RealAccY,RealAccZ,PosX,PosY,PosZ,Long,Lat,Height,VelX,VelY,VelZ,RSSI,SNR,
22:23:16:21,6041,24.8594,0.99983  0.00021612 -0.00042157   -0.018472,0.025654   -0.047842     -2.1169,-0.0021152   0.0096054   -0.010834,-0.016571    0.001318   0.0084686,-0.0082397   0.0051041      9.7969,0  0  0,24.78574      120.9973      140.3076,-0.07330322  -0.009048462      140.3076,-30,6,
22:23:16:55,6042,24.8906,0.99983  0.00020571 -0.00036445   -0.018507,0.024341   -0.041319     -2.1209,-0.0032654    0.014435   -0.019257,-0.013023  -0.0044403   0.0019341,-0.0060844 -0.00086117      9.7891,0  0  0,24.78574      120.9973      140.2675,-0.07495117  -0.009666443      140.2675,-31,6,
22:23:16:89,6043,24.8906,0.99983  0.00021465 -0.00035451   -0.018462,0.025343   -0.040163     -2.1158,-0.0023499    0.012917   -0.015869,-0.017593  -0.0038757   0.0080643,-0.010719 -0.00020015      9.7969,0  0  0,24.78574      120.9973       140.215,-0.07824707  -0.009063721       140.215,-31,7,
22:23:17:23,6044,24.8906,0.99983  0.00019955 -0.00030738   -0.018462,0.023513   -0.034794     -2.1157,-0.0016861   0.0099487   -0.012047,-0.026489 -0.00058746    0.001935,-0.020355   0.0025082      9.7891,0  0  0,24.78574      120.9973      140.1418,-0.07562256  -0.007949829      140.1418,-31,6.5,
22:23:17:57,6045,24.8906,0.99983  0.00020828 -0.00029098   -0.018379,0.024476   -0.032899     -2.1063,-0.0027447    0.013763     -0.0177,-0.022736  -0.0039902   -0.002449,-0.017181 -0.00069523      9.7891,0  0  0,24.78574      120.9973      140.0842,-0.07672119   -0.00831604      140.0842,-30,6,
22:23:17:91,6046,24.8906,0.99983   0.0001849 -0.00022953   -0.018381,0.021668   -0.025908     -2.1065,-0.0023785    0.011742   -0.015022,-0.01487  -0.0035992  -0.0045509,-0.01033 -0.00045753      9.7813,0  0  0,24.78574      120.9973      140.0336,-0.07763672  -0.009216309      140.0336,-30,5.75,
22:23:18:25,6047,24.8906,0.99983  0.00020819  -0.0001739   -0.018384,0.024219   -0.019485     -2.1068,-0.0019178    0.010513   -0.012939,-0.011993    -0.00177    0.005352,-0.0084915   0.0019627      9.7969,0  0  0,24.78574      120.9973      139.9594,-0.07568359  -0.009223938      139.9594,-30,6,
22:23:18:58,6048,24.8906,0.99983  0.00020335 -0.00014852   -0.018337,0.023611   -0.016589     -2.1013,-0.0018883   0.0096741   -0.011215,-0.014763  -0.0045624   0.0054169,-0.011574  -0.0010281      9.7969,0  0  0,24.78574      120.9973      139.9069,-0.07806396   -0.01005554      139.9069,-32,6.5,
22:23:18:92,6049,24.8906,0.99983  0.00019474 -0.00011346   -0.018359,0.02255    -0.01259     -2.1039,-0.0017776    0.009758   -0.012054,-0.0037098  -0.0038357   0.0046616,-0.0012512 -6.8665e-05      9.7969,0  0  0,24.78574      120.9973      139.8686,-0.07836914  -0.009941101      139.8686,-33,6.5,
22:23:19:26,6050,24.8906,0.99983  0.00018808 -4.2469e-05   -0.018381,0.021638  -0.0044696     -2.1064,-0.0036087    0.013885    -0.01825,0.0015097    0.004921  -0.0016899,0.001852   0.0085373      9.7891,0  0  0,24.78573      120.9973      139.8121,-0.07202148   -0.00844574      139.8121,-34,6.25,
22:23:19:60,6051,24.8906,0.99983  0.00018689   2.759e-05   -0.018396,0.021354    0.003555     -2.1081,-0.0016642    0.010719   -0.013428,-0.0020866   0.0018206   0.0027714,-0.0026894   0.0054474      9.7891,0  0  0,24.78573      120.9973      139.7695,-0.06268311  -0.007972717      139.7695,-30,6.5,
22:23:19:94,6052,24.8906,0.99983  0.00018587  6.3317e-06   -0.018365,0.021282   0.0011166     -2.1046,-0.0028877    0.014168   -0.016754,0.0071678   0.0061798  0.00095463,0.0064812     0.01001      9.7891,0  0  0,24.78573      120.9973      139.7072,-0.05877686  -0.004924774      139.7072,-32,5.75,
22:23:20:28,6053,24.8906,0.99983  0.00019135 -5.8371e-06   -0.018366,0.021935 -0.00026605     -2.1047,-0.0022545    0.010117   -0.011124,-0.0059891   0.0026741     0.00494,-0.005909   0.0061989      9.7969,0  0  0,24.78573      120.9973      139.6674,-0.05822754  -0.004127502      139.6674,-38,6,
22:23:20:62,6054,24.8906,0.99983  0.00022033 -9.0211e-06   -0.018368,0.025263 -0.00056982     -2.1049,-0.0021591    0.012817   -0.016724,0.00083399  -0.0058441   0.0017042,0.0010099  -0.0014849      9.7891,0  0  0,24.78573      120.9973      139.6284,-0.05630493  -0.006233215      139.6284,-33,6,
22:23:20:96,6055,24.8906,0.99983  0.00023055 -4.7778e-05   -0.018304,0.026515  -0.0049905     -2.0976,-0.0020409    0.010925    -0.01255,-0.009903   0.0017719   0.0013704,-0.0090637   0.0059586      9.7891,0  0  0,24.78573      120.9973      139.5853,-0.05245972   -0.00712204      139.5853,-32,6.5,
22:23:21:30,6056,24.8906,0.99983  0.00022513 -4.6914e-06   -0.018337,0.025804 -6.4456e-05     -2.1013,-0.0016365    0.010536    -0.01265,-0.0055885  -0.0046921   -0.002306,-0.0053139 -0.00042892      9.7891,0  0  0,24.78573      120.9973      139.5702,-0.0479126   -0.00579834      139.5702,-33,6.25,
22:23:21:64,6057,24.8906,0.99983  0.00024157 -8.9653e-05   -0.018198,0.027864   -0.009768     -2.0854,-0.0029392    0.010536   -0.014511,-0.0056305  -0.0085373 -0.00027275,-0.003561  -0.0040436      9.7891,0  0  0,24.78573      120.9973      139.5835,-0.04669189  -0.007434845      139.5835,-33,6.25,
22:23:21:98,6058,24.8906,0.99983  0.00012798 -6.6787e-05   -0.018298,0.014803  -0.0073836     -2.0969,-0.0091858   0.0078354   -0.017014,0.032227    -0.11273  -0.0056152,0.037933    -0.10962      9.7813,0  0  0,24.78573      120.9973      139.5443,-0.04641724  -0.009246826      139.5443,-34,4.25,
22:23:22:32,6059,24.9219,0.99984  1.3281e-06 -0.00012482   -0.017809,0.0004069   -0.014298     -2.0409,-0.00050735       0.013   -0.020554,0.020096   -0.044403   -0.013206,0.023956   -0.043427      9.7734,0  0  0,24.78573      120.9973      139.5392,-0.04684448   -0.00611496      139.5392,-33,5.5,
22:23:22:66,6060,24.9219,0.99983  0.00024014  -1.781e-05   -0.018257,0.02755  -0.0015382     -2.0922,-0.0024948    0.012047   -0.014297,-0.013351    -0.20862   -0.014946,-0.0055237    -0.20422      9.7734,0  0  0,24.78573      120.9973      139.5119,-0.05029297  -0.007408142      139.5119,-33,6.25,
22:23:23:00,6061,24.9219,0.99984  0.00018167 -2.0918e-05   -0.018157,0.020858  -0.0020186     -2.0808,-0.0040627    0.010834   -0.011047,-0.012917    0.028671  8.4877e-05,-0.01355    0.031586      9.7891,0  0  0,24.78573      120.9973      139.4907,-0.05093384  -0.009620667      139.4907,-35,6.5,
22:23:23:34,6062,24.9531,0.99984  0.00022514 -2.1657e-05    -0.01813,0.02584  -0.0020136     -2.0776,-0.0018482    0.011536   -0.011589,-0.028717    0.071411  -0.0011587,-0.030945    0.074768      9.7891,0  0  0,24.78573      120.9973      139.4915,-0.05368042  -0.005748749      139.4915,-37,5.75,
22:23:23:68,6063,24.9531,0.99984  0.00026444 -3.0777e-05   -0.018128,0.030362  -0.0029769     -2.0775,-0.0019217    0.010475   -0.012688,-0.020905    0.034973  -0.0035114,-0.021561    0.039398      9.7891,0  0  0,24.78573      120.9973      139.5026,-0.05645752  -0.007469177      139.5026,-37,6.5,
22:23:24:02,6064,24.9531,0.99983  0.00024696  -5.272e-05   -0.018168,0.028404  -0.0055262      -2.082,-0.0031204    0.012665   -0.016541,-0.0084686   -0.018402   0.0088806,-0.0069695   -0.013924      9.7969,0  0  0,24.78573      120.9973      139.4901,-0.05886841  -0.007556915      139.4901,-39,6.5,
22:23:24:37,6065,24.9531,0.99983  0.00028151  3.0091e-06   -0.018383,0.032247  0.00093777     -2.1066,-0.0019197   0.0093231   -0.013313,-0.014557  -0.0093689   0.0079422,-0.01416  -0.0043526      9.7969,0  0  0,24.78573      120.9973      139.4992,-0.06228638  -0.007442474      139.4992,-34,6.5,
22:23:24:71,6066,24.9531,0.99983  0.00020603  3.4155e-05   -0.018324,0.023534   0.0043459     -2.0999,-0.003273    0.014694   -0.018448,-0.01709     0.00914  -0.0017986,-0.018478    0.012428      9.7891,0  0  0,24.78573      120.9973      139.4826,-0.06213379  -0.005882263      139.4826,-34,6.25,
22:23:25:05,6067,24.9531,0.99983 -0.00027254 -2.9276e-05   -0.018277,-0.031165   -0.003925     -2.0945,-0.0048332    0.012527   -0.021072,-0.050964   -0.039215    0.042786,-0.04892   -0.046661      9.8281,0  0  0,24.78573      120.9973      139.4876,-0.06518555   -0.01094055      139.4876,-32,6,
22:23:25:39,6068,24.9688,0.99982 -0.00092345 -3.9286e-06   -0.018694,-0.10579  -0.0024283     -2.1423,-0.010368     0.01281   -0.024704,-0.019165    -0.11426    0.019058,-0.014587    -0.13379      9.8047,0  0  0,24.78573      120.9973      139.4978,-0.06433105   -0.01878357      139.4978,-33,6.75,
22:23:25:73,6069,24.9688,0.99984  -0.0026183  -0.0002908    -0.01774,-0.2994   -0.038641     -2.0328,-0.012489     0.01075  -0.0042305,0.1145    -0.60059     0.10352,0.14233    -0.64893      9.8906,0  0  0,24.78573      120.9973      139.4688,-0.06173706    -0.1074829      139.4688,-32,7,
22:23:26:07,6070,24.9688,0.99988  -0.0025088  0.00043192   -0.014982,-0.28819    0.045181      -1.717,0.002121    0.020889     0.07843,-0.11896    -0.17188     0.37183,-0.122986    -0.225952      10.1563,0  0  0,24.78573      120.9973      139.5021,-0.06903076    -0.2976074      139.5021,-29,6.25,
22:23:26:41,6071,24.9688,1  -0.0022092  0.00079226   0.0016435,-0.25301    0.091202     0.18813,-0.0036907     0.12073     0.01944,-0.42407     0.17236    -0.26147,-0.44922     0.13171      9.5234,0  0  0,24.78573      120.9973      139.5178,-0.04779053    -0.4470215      139.5178,-28,6.25,
22:23:26:75,6072,24.9688,0.99997  -0.0012194  -0.0002502   0.0082537,-0.13997   -0.027516     0.94585,-0.018997    0.038788   -0.011581,0.022781    -0.20886     0.68506,0.0214844    -0.236572      10.4766,0  0  0,24.78574      120.9973      139.4868,-0.01829529    -0.4946289      139.4868,-29,6.25,
22:23:27:08,6073,24.9688,0.99998  -0.0014401  0.00035219   0.0068897,-0.16474    0.041494     0.78945,-0.018188     0.05368   -0.032196,-1.0615    -0.38745     0.73242,-1.0791    -0.405029      10.5156,0  0  0,24.78574      120.9973      139.4964,-0.0112915    -0.4970703      139.4964,-29,6.25,
22:23:27:42,6074,25,0.99998 -0.00040919   -0.001228   0.0063711,-0.047785    -0.14042     0.73014,-0.016754      0.1593   -0.012642,0.74512     -0.3313     0.37598,0.750488     -0.35083      10.1641,0  0  0,24.78574      120.9973      139.5269,0.01387787    -0.5297852      139.5269,-32,6.75,
22:23:27:76,6075,25,0.99993  -0.0016792 -0.00080242    0.011346,-0.19346   -0.089761      1.3004,-0.015701    0.026886    0.037781,0.4397   -0.051208      0.5874,0.453125   -0.0978394       10.375,0  0  0,24.78574      120.9973      139.4992,0.03479004       -0.5625      139.4992,-34,6,
22:23:28:10,6076,25,0.99974  -0.0027286  0.00021306    0.022755,-0.31203    0.031523      2.6077,-0.054779   -0.021286    0.022446,0.50391     0.37866     0.26538,0.518555     0.294922      10.0547,0  0  0,24.78574      120.9973      139.5038,0.04751587    -0.5336914      139.5038,-38,6,
22:23:28:44,6077,25,0.99945  -0.0034315  0.00038328    0.033068,-0.39156      0.0569      3.7898,-0.017807   -0.019882    0.058899,-0.039368     0.26392     0.21118,-0.0285187     0.195923           10,0  0  0,24.78574      120.9973      139.4893,0.07458496    -0.5375977      139.4893,-39,6,
22:23:28:78,6078,25,0.99891   -0.002575 -6.8551e-05    0.046664,-0.29512   0.0059224      5.3493,0.00099468    0.035278     0.07666,-0.13574    -0.13208   -0.032532,-0.151    -0.16858      9.7578,0  0  0,24.78575      120.9973      139.5038,0.100708    -0.5532227      139.5038,-37,6.25,
22:23:29:12,6079,25,0.99827  -0.0023487   0.0013276     0.05882,-0.25973      0.1677      6.7438,0.02739    -0.13306    0.040009,0.54932     -1.6035      1.6875,0.339355     -1.70508      11.4688,0  0  0,24.78575      120.9973      139.5481,0.123291    -0.5634766      139.5481,-37,6.25,
22:23:29:46,6080,25.0313,0.99799  -0.0015897   0.0034854    0.063327,-0.15651     0.41014       7.261,-0.007843    0.050537   -0.028427,-0.22437     0.12469     0.19727,-0.28223     0.12415      9.9844,0  0  0,24.78575      120.9973      139.5246,0.1524658    -0.5390625      139.5246,-40,6,
22:23:29:80,6081,25.0313,0.99826  -0.0021704   0.0026814    0.058795,-0.23022     0.32135      6.7407,-0.0039673    0.032562   -0.034546,-0.12122      0.3584     -0.5459,-0.13208     0.33301      9.2422,0  0  0,24.78575      120.9973      139.5042,0.1564941    -0.5415039      139.5042,-41,5.5,
22:23:30:14,6082,25.0313,0.9985  -0.0029654   0.0052167    0.054345,-0.30683     0.61537       6.229,-0.01709     0.18481   -0.066956,0.29077     0.66504     -2.7305,0.27271     0.59082      7.0664,0  0  0,24.78575      120.9973      139.4656,0.1563721    -0.5288086      139.4656,-39,6,
22:23:30:48,6083,25.0156,0.99882  -0.0027338   0.0020282    0.048434,-0.30165     0.24731      5.5517,0.00062084   0.0075531   -0.049103,0.3938   -0.034119      0.2052,0.34595    -0.12427      9.9922,0  0  0,24.78575      120.9973      139.4309,0.1621094    -0.4916992      139.4309,-43,3,
22:23:30:82,6084,25.0156,0.99905  -0.0022567   0.0020869    0.043486,-0.24796     0.25016      4.9842,0.02829    0.031082   -0.019562,-1.042     -0.3374    -0.28882,-1.1113    -0.28394      9.4922,0  0  0,24.78576      120.9973      139.4313,0.1556396    -0.5146484      139.4313,-42,6.5,
22:23:31:16,6085,25.0313,0.99898  -0.0018016  -0.0010298    0.044997,-0.21155     -0.1086      5.1583,0.03714      0.1145    0.061707,2.2344    -0.45068    -0.17078,2.1914    -0.68311      9.6172,0  0  0,24.78576      120.9973      139.3923,0.1843262    -0.4973145      139.3923,-44,5.5,
22:23:31:50,6086,25.0313,0.99883  -0.0027299   0.0024708    0.048137,-0.29883     0.29786      5.5175,-0.0071754     0.12793   -0.022552,-0.17676  -0.0020885     0.71338,-0.243042   -0.0404053         10.5,0  0  0,24.78576      120.9973        139.37,0.1734619    -0.4924316        139.37,-50,6,
22:23:31:84,6087,25.0313,0.99904   -0.003653   0.0026186    0.043618,-0.40512     0.31804      4.9987,0.0077858    0.099915    -0.05014,-0.46826    -0.14331    -0.53125,-0.53857    -0.16675        9.25,0  0  0,24.78576      120.9973      139.3645,0.1651611    -0.4655762      139.3645,-47,7,
22:23:32:18,6088,25.0156,0.99951  -0.0043287   0.0045485    0.030546,-0.4799     0.53613      3.4987,-0.16406     0.35303    -0.23987,0.38208      3.9961     0.87891,0.47998      3.85938      10.7109,0  0  0,24.78576      120.9973      139.3426,0.1809082     -0.451416      139.3426,-46,6,
22:23:32:52,6089,25.0156,0.99999  -0.0033095   0.0016733   0.0017539,-0.3789     0.19241     0.20035,0.015961   -0.017319    -0.17285,0.41064    -0.21985     0.40869,0.378906    -0.286377      10.1953,0  0  0,24.78576      120.9973       139.295,0.1483154    -0.5112305       139.295,-47,7,
22:23:32:87,6090,25.0156,0.99971  -0.0014513   0.0022204   -0.023976,-0.17236     0.25038     -2.7481,0.024963    0.044952    -0.14197,-0.01236    0.051392     0.39526,-0.0627441    0.0227966      10.1875,0  0  0,24.78576      120.9973      139.2979,0.1152344    -0.5595703      139.2979,-45,5.5,
22:23:33:21,6091,25.0469,0.99942  -0.0012573   0.0032177   -0.033794,-0.15646     0.36364     -3.8737,-0.00081825   -0.013069  -0.0080338,-1.1133    -0.30029    -0.18115,-1.1484    -0.40063      9.6016,0  0  0,24.78576      120.9973      139.2903,0.1134033    -0.5556641      139.2903,-47,6.75,
22:23:33:55,6092,25.0469,0.99945   -0.001442   -0.001849   -0.033191,-0.15812    -0.21725     -3.8038,0.020737     0.44116   -0.055084,2.9414       1.335     0.38452,2.83984      1.50293      10.1797,0  0  0,24.78577      120.9973      139.2941,0.1618652    -0.5766602      139.2941,-49,6,
22:23:33:89,6093,25.0469,0.99955  -0.0032921   0.0012198   -0.029641,-0.38123     0.12853     -3.3976,-0.010201   -0.076904   -0.011559,0.38477    -0.89307      2.2832,0.420654    -0.950195      12.0625,0  0  0,24.78577      120.9973      139.2955,0.1463623    -0.5458984      139.2955,-51,6,
22:23:34:23,6094,25.0156,0.99979  -0.0015674   0.0021163   -0.020323,-0.18451     0.23881     -2.3294,0.043945    0.018845    0.053589,0.34131    -0.56201     0.28101,0.320801    -0.575684      10.0703,0  0  0,24.78577      120.9973      139.3153,0.177124    -0.5600586      139.3153,-50,6.5,
22:23:34:57,6095,25.0156,0.99981 -0.00074142   0.0043318    -0.01877,-0.094265      0.4947     -2.1514,-0.022598    0.099426   -0.022873,0.14063    -0.57471     0.23853,0.0666504    -0.587402      10.0313,0  0  0,24.78577      120.9973      139.3566,0.1875    -0.5874023      139.3566,-49,6,
22:23:34:91,6096,25.0156,0.99981   0.0002545   0.0013625   -0.019379,0.026132     0.15666     -2.2208,-0.01619    -0.09729  -0.0054932,-0.49023    -0.49512     -1.4434,-0.48438    -0.51123      8.3438,0  0  0,24.78577      120.9973      139.4143,0.1794434    -0.6137695      139.4143,-48,6.25,
22:23:35:25,6097,25,0.99977  -0.0017248   0.0035761   -0.021193,-0.2063     0.40551     -2.4295,-0.13611     0.37476   -0.084778,-2.125       1.875      2.3887,-2.33398      1.72168      12.1641,0  0  0,24.78578      120.9973      139.4638,0.1959229     -0.637207      139.4638,-48,6.25,
22:23:35:58,6098,25,0.99995 -0.00075669   0.0011195  -0.0099629,-0.087984     0.12742     -1.1418,-0.034454     0.38525    0.058075,2.207     0.53662      4.4922,2.11133     0.552246      14.2969,0  0  0,24.78578      120.9973      139.5198,0.2304688    -0.6616211      139.5198,-46,6.75,
22:23:35:92,6099,25,0.99998  -0.0018856   0.0030387  -0.0057895,-0.21809     0.34696    -0.66409,-0.030319    0.052704    0.027359,-1.2295     0.87549     -3.3008,-1.2803     0.83545      6.4844,0  0  0,24.78578      120.9973      139.5869,0.2200928    -0.6635742      139.5869,-47,6.75,
22:23:36:26,6100,25.0313,0.99997   -0.002333   0.0020437  -0.0064186,-0.26884     0.23247    -0.73607,-0.016556    0.050781   -0.019852,-1.1338     0.69092     -1.9883,-1.1777     0.63818      7.7969,0  0  0,24.78578      120.9973      139.6501,0.2521973    -0.6679688      139.6501,-49,7,
22:23:36:60,6101,25.0313,0.99998  -0.0015056  -0.0010743  -0.0067226,-0.17169    -0.12426    -0.77017,-0.26978   -0.079163   -0.076538,-0.48486      3.2109     -1.6787,-0.50488      3.1582      8.1328,0  0  0,24.78579      120.9973      139.6904,0.2668457     -0.581543      139.6904,-47,6.5,
22:23:36:94,6102,25.0313,0.99996  -0.0022676  0.00097419  -0.0084138,-0.26078     0.10944    -0.96441,0.011116      0.1626   -0.019562,0.72021    -0.63379    -0.70459,0.7002    -0.66162      9.0859,0  0  0,24.78579      120.9973      139.6999,0.2824707    -0.6098633      139.6999,-50,6.5,
22:23:37:28,6103,25.0313,0.99995  -0.0061732  -0.0060293  -0.0040814,-0.70461    -0.69378    -0.46345,0.1958    0.040833    0.012794,1.3965     -1.0361     0.50635,1.52637     -1.13086      10.2656,0  0  0,24.78579      120.9973      139.7034,0.2797852    -0.6049805      139.7034,-51,6.75,
22:23:37:62,6104,25.0313,0.99999  -0.0047229  -0.0016879  -0.0022037,-0.54078    -0.19461    -0.25161,0.0072861    0.028061  -0.0075798,-0.12952     0.35669    -0.25684,-0.10028     0.26709      9.5391,0  0  0,24.78579      120.9973      139.7456,0.2946777    -0.6191406      139.7456,-50,6,
22:23:37:96,6105,25.0313,1  -0.0017622  -0.0016573   0.0013034,-0.20218    -0.18965     0.14969,0.022141   -0.088318   -0.011505,1.5117     -1.2539   -0.099976,1.5508       -1.29      9.6797,0  0  0,24.7858      120.9973       139.831,0.3166504    -0.4682617       139.831,-51,6,
22:23:38:30,6106,25,0.99999  -0.0030942  -0.0030535  -0.0022723,-0.35378    -0.35071    -0.25931,-0.059235    0.018082    0.010086,0.71143      1.3418    -0.38599,0.76221      1.2813      9.4063,0  0  0,24.7858      120.9973      139.9353,0.310791    -0.5131836      139.9353,-52,6.5,
22:23:38:64,6107,25,0.99999  -0.0033022  -0.0012416  -0.0028658,-0.37799    -0.14336    -0.32793,0.023773    0.040222   -0.010269,-0.24951    -0.39502     -1.0449,-0.22791    -0.45166      8.7422,0  0  0,24.7858      120.9973      140.0304,0.3093262    -0.5014648      140.0304,-54,6.5,
22:23:38:98,6108,25,0.99998  -0.0043988 -0.00077373  -0.0052415,-0.50359   -0.091303    -0.60024,-0.0056305   0.0063896   -0.040192,-0.65967   0.0099182    -0.27197,-0.64404   -0.081177      9.5156,0  0  0,24.7858      120.9973      140.1212,0.2858887     -0.473877      140.1212,-54,6.5,
22:23:39:33,6109,25.0156,0.99997  -0.0047088   0.0015267  -0.0055589,-0.54056     0.17194    -0.63783,0.063049    0.023865    0.010101,-2.1602    -0.60693     -1.4258,-2.1797    -0.70361      8.3516,0  0  0,24.7858      120.9973      140.1681,0.2814941    -0.5126953      140.1681,-55,6,
22:23:39:67,6110,25.0156,0.99997   -0.003791 -0.00043959  -0.0067896,-0.43406   -0.053321    -0.77784,0.097656     0.39795   -0.043427,-0.59375     -3.9609     -5.2773,-0.55176      -3.998      4.4805,0  0  0,24.7858      120.9973      140.2142,0.2949219    -0.5249023      140.2142,-57,6.75,
22:23:40:01,6111,25.0156,0.99994  -0.0020172  -0.0031263   -0.010215,-0.22748     -0.3606     -1.1699,-0.021027    0.091125  -0.0074806,-0.47485      1.5439       1.832,-0.442383      1.48535      11.6328,0  0  0,24.78581      120.9973      140.2284,0.2634277    -0.5014648      140.2284,-57,6.75,
22:23:40:35,6112,24.9844,0.99998  -0.0015874  -0.0030969  -0.0053193,-0.18001    -0.35584    -0.60899,-0.0040474    0.019501    0.015671,-0.082825     0.21277     0.40796,-0.0225525     0.179688      10.1953,0  0  0,24.78581      120.9973      140.2503,0.2619629    -0.4863281      140.2503,-58,6.75,
22:23:40:69,6113,24.9844,1 -0.00096647  0.00051158  -0.0013701,-0.11083    0.058471    -0.15706,0.055695     0.14148  -0.0016203,-1.0967       1.043   -0.069641,-1.1221      1.0273      9.7188,0  0  0,24.78581      120.9973      140.2467,0.2496338    -0.4853516      140.2467,-59,6.25,
22:23:41:03,6114,24.9844,0.99996  -0.0009442  -0.0073821  -0.0056658,-0.10341    -0.84653    -0.64851,0.031616    -0.36621   -0.042114,1.8086     0.16345      1.6689,2.01953     0.167725      11.4219,0  0  0,24.78581      120.9973      140.2236,0.2331543    -0.4985352      140.2236,-66,6,
22:23:41:37,6115,25,0.99996  -0.0024674  -0.0039078  -0.0079443,-0.27918    -0.45003    -0.90927,-0.23682    0.019104    0.018677,2.2109      3.3281     0.89648,2.24219       3.2832      10.6953,0  0  0,24.78581      120.9973      140.2112,0.2407227    -0.5385742      140.2112,-72,6,
22:23:41:71,6116,25,0.99997  -0.0015144  -0.0028447   -0.006689,-0.17136    -0.32713    -0.76602,0.0076523    0.051819   0.0058479,-0.25732    -0.64844      0.8335,-0.192505    -0.682617       10.625,0  0  0,24.78582      120.9973      140.1676,0.1942139    -0.5712891      140.1676,-64,6.75,
22:23:42:05,6117,25,0.99999  -0.0011679  -0.0036658   0.0031939,-0.13517    -0.41964      0.3665,-0.0074463    0.053986    0.077942,0.37695    -0.32788    -0.32031,0.43994    -0.35352      9.4688,0  0  0,24.78582      120.9973      140.1668,0.1999512       -0.5625      140.1668,-70,6,
22:23:42:39,6118,25,0.99973  -0.0010726  -0.0034434     0.02282,-0.13189    -0.39168      2.6157,-0.0037842    0.046722     0.11603,0.20105     0.27319    -0.28027,0.27515     0.24133      9.5078,0  0  0,24.78582      120.9973      140.1596,0.2143555    -0.5869141      140.1596,-68,6.25,
22:23:42:73,6119,25,0.99966 -0.00036269  -0.0043683    0.025667,-0.054398    -0.49934      2.9418,-0.25073    -0.36768   -0.055359,1.7012      4.9922       6.125,2.15234      4.84766      15.9063,0  0  0,24.78582      120.9973      140.1343,0.2194824    -0.5537109      140.1343,-60,7,
22:23:43:07,6120,25.0156,0.99975 -0.00062492  -0.0014246     0.02225,-0.075225    -0.16161        2.55,-0.016495  -0.0094376   -0.030228,0.42041     0.14563     0.40503,0.457275        0.112      10.1953,0  0  0,24.78583      120.9973      140.1193,0.2004395    -0.6298828      140.1193,-65,6,
22:23:43:41,6121,25.0156,0.99985  -0.0010505  -0.0030131     0.01698,-0.12622    -0.34318      1.9462,0.011856   -0.033386   -0.066406,-0.12561    -0.20972       0.604,-0.0656128    -0.226807      10.3906,0  0  0,24.78583      120.9973      140.1019,0.1705322    -0.6328125      140.1019,-62,6.75,
22:23:43:75,6122,25.0156,0.99976  -0.0018021 -0.00061155    0.021797,-0.20798   -0.065561      2.4981,0.0050545   -0.056396    0.050842,-0.43848    -0.38477     -1.1211,-0.43921    -0.39575      8.6641,0  0  0,24.78583      120.9973      140.0755,0.1694336    -0.6030273      140.0755,-64,6.25,
22:23:44:08,6123,25.0469,0.99946 -0.00010714  0.00095345    0.032791,-0.0086884      0.1096      3.7582,0.20703     0.39502    0.069092,-1.8594    -0.20178    -0.59912,-1.9209    -0.06015      9.1797,0  0  0,24.78583      120.9973      140.0611,0.1881104    -0.6474609      140.0611,-70,6.25,
22:23:44:42,6124,25.0469,0.99926 -0.00048468  -0.0030425    0.038373,-0.068879    -0.34626      4.3985,0.014946    0.098877   -0.013168,0.99951      1.6436      1.1299,1.17871      1.55078      10.9141,0  0  0,24.78583      120.9973      140.0634,0.1855469    -0.6904297      140.0634,-78,4.75,
22:23:44:76,6125,25.0469,0.99939  0.00033178 -0.00083665    0.034818,0.034658   -0.097139      3.9906,-0.14111     0.12634    -0.12866,-0.4939    0.017166     0.61328,-0.48584    0.0427856      10.4063,0  0  0,24.78584      120.9973      140.0697,0.1657715    -0.6323242      140.0697,-75,6.25,
22:23:45:10,6126,25.0156,0.99965   0.0010502  -0.0026977    0.026149,0.11222    -0.31218      2.9965,-0.0048447   -0.068237   -0.089355,0.12292     0.12292     0.87744,0.195679     0.137085      10.6641,0  0  0,24.78584      120.9973      140.0989,0.1196289     -0.671875      140.0989,-68,6.75,
22:23:45:44,6127,25.0156,0.99995 -0.00086828  -0.0020278   0.0093125,-0.10166    -0.23144      1.0674,-0.014061   -0.058929    -0.15613,-0.88184     0.78076    -0.60693,-0.82422     0.77881      9.1875,0  0  0,24.78584      120.9973       140.161,0.0871582    -0.6743164       140.161,-70,6.5,
22:23:45:78,6128,25.0156,0.99996 -0.00055745  -0.0035802  -0.0085885,-0.060354     -0.4108    -0.98397,0.012283   -0.025238   -0.082397,0.83984     0.12915     0.63916,0.916016     0.134766      10.4219,0  0  0,24.78584      120.9973      140.2312,0.0647583    -0.7055664      140.2312,-65,6.25,
22:23:46:12,6129,25.0156,0.99995  0.00067232  -0.0060905  -0.0083096,0.082843    -0.69726    -0.95275,-0.015388   -0.063416    0.058868,0.36401    -0.41602   -0.084717,0.49585    -0.39771      9.6953,0  0  0,24.78584      120.9973      140.2792,0.04846191    -0.7280273      140.2792,-61,5.75,
22:23:46:46,6130,25.0156,0.99999  0.00020102  -0.0049464  4.7924e-05,0.023008    -0.56682   0.0053779,-0.014565    0.029984    0.052612,1.7148    0.073181     0.27148,1.8125     0.074646      10.0469,0  0  0,24.78585      120.9973      140.3073,0.08184814    -0.7788086      140.3073,-60,6.25,
22:23:46:80,6131,25.0156,0.99999  0.00019953  -0.0034413   0.0015655,0.022247    -0.39439     0.17932,0.014877    0.087219   0.0044518,-0.28955    -0.27466    -0.63623,-0.23438    -0.26855      9.1563,0  0  0,24.78585      120.9973      140.3217,0.05169678    -0.8046875      140.3217,-63,6.5,
22:23:47:14,6132,25.0156,0.99993   0.0011923  -0.0035225    0.010857,0.13224    -0.40511      1.2437,0.34839    -0.12634     0.10809,-0.95703    0.045258     0.76514,-0.866699     0.128418      10.5625,0  0  0,24.78585      120.9973      140.3051,0.04855347    -0.8056641      140.3051,-63,6.75,
22:23:47:48,6133,25.0156,0.9998  0.00094843  -0.0042324    0.019678,0.099119    -0.48704      2.2547,-0.024124    0.053955    0.027847,-0.89014    -0.58154     -1.4131,-0.84473     -0.5332      8.3828,0  0  0,24.78585      120.9973       140.228,0.07501221    -0.8154297       140.228,-64,6.5,
22:23:47:83,6134,25.0156,0.99964  0.00041837  -0.0034473    0.026645,0.037399    -0.39617      3.0536,-0.15112     0.25049    0.019196,0.079712     0.88916   -0.053558,0.17126     0.87549      9.7344,0  0  0,24.78586      120.9973      140.1446,0.09020996    -0.8500977      140.1446,-64,6.25,
22:23:48:17,6135,24.9219,0.99962  9.3035e-05  -0.0052688    0.026929,-0.0056018    -0.60383      3.0863,0.05127     0.11737    -0.05777,1.1816    0.035736      1.0225,1.28418   -0.0226593      10.7969,0  0  0,24.78586      120.9973      140.1006,0.09051514    -0.8164063      140.1006,-63,6.75,
22:23:48:51,6136,24.9219,0.99974   0.0011447  -0.0030616    0.022689,0.12318    -0.35372      2.5999,-0.065369    -0.11743   -0.015442,-3.5039      1.3838     0.77637,-3.35742      1.55762      10.5859,0  0  0,24.78586      120.9973      140.0886,0.06524658    -0.7915039      140.0886,-61,5.5,
22:23:48:85,6137,24.9219,0.99961  -0.0015349   -0.007467    0.026989,-0.19893     -0.8506      3.0947,-0.02597   -0.065857   0.0060921,2.4648     -1.0869      1.7881,2.58398     -1.26172      11.5313,0  0  0,24.78587      120.9973      140.1021,0.07885742    -0.8256836      140.1021,-61,6.25,
22:23:49:19,6138,24.9063,0.99932   0.0010337   -0.010424    0.035219,0.076321     -1.1979      4.0361,0.23682     0.12598    0.056732,4.1836    -0.44727     -1.1494,4.3125    -0.71191      8.5625,0  0  0,24.78587      120.9973      140.1171,0.1148071    -0.8652344      140.1171,-63,6.75,
22:23:49:53,6139,24.9063,0.99894 -0.00056818  -0.0094298    0.045006,-0.11369     -1.0766      5.1603,-0.26147    0.037384   -0.055573,3.2598      5.6406      8.7813,4.09375      5.24219      18.5156,0  0  0,24.78587      120.9973      140.1767,0.1124268    -0.7924805      140.1767,-61,6,
22:23:49:87,6140,24.9063,0.9987  0.00027435  -0.0055947    0.050704,-0.0011095    -0.64188      5.8129,0.36646    -0.72949    0.022186,-2.9844     -4.3438     -8.2422,-3.3809     -4.0117       1.623,0  0  0,24.78587      120.9973      140.2105,0.05007935    -0.8896484      140.2105,-64,6.5,
22:23:50:21,6141,24.9531,0.99902  -0.0014439  0.00059127    0.044143,-0.1623    0.074992        5.06,-0.027267    -0.10162    -0.13208,-1.0762      1.1885     -1.6855,-0.96973       1.252      8.1094,0  0  0,24.78588      120.9973      140.2294,0.1005249    -0.8276367      140.2294,-65,5.75,
22:23:50:55,6142,24.9531,0.99952  0.00013213     0.00143     0.03106,0.020224     0.16331      3.5599,0.61475        0.13    -0.07373,3.4668     -4.70313      15.0938,3.07031     -4.74219      24.9219,0  0  0,24.78588      120.9973      140.2499,0.08465576    -0.8388672      140.2499,-64,6.25,
22:23:50:89,6143,24.9531,0.99968  0.00093732  -0.0002769    0.025129,0.10658    -0.03442      2.8798,-0.0077515   -0.025635   -0.077209,0.0012846    -0.40894    -0.89453,-0.010399    -0.39233      8.8984,0  0  0,24.78588      120.9973      140.2816,0.04391479    -0.8110352      140.2816,-64,6,
22:23:51:23,6144,24.9531,0.99992  0.00090242   -0.004246    0.011848,0.09764    -0.48775      1.3573,-0.0078812   -0.086304   -0.075195,-0.22742    0.060699    -0.45142,-0.13733     0.08136      9.3359,0  0  0,24.78588      120.9973      140.3236,0.03323364    -0.8251953      140.3236,-64,6.25,
22:23:51:57,6145,24.9531,0.99992   0.0026589  -0.0026254    0.011982,0.30107    -0.30448      1.3723,0.018723   -0.079651    0.066406,0.49072    -0.43359    -0.90332,0.53516    -0.39722      8.8828,0  0  0,24.78589      120.9973      140.3468,0.01777649    -0.8305664      140.3468,-62,6.75,
22:23:51:91,6146,25.0156,0.99975    0.002602   -0.004824    0.021522,0.28621    -0.55908       2.465,0.045776     0.01136    0.019714,0.5083     0.20203     -1.1328,0.60107     0.22705      8.6484,0  0  0,24.78589      120.9973      140.3549,0.02459717    -0.8461914      140.3549,-62,6.5,
22:23:52:25,6147,25.0156,0.99978   0.0019547  -0.0031913    0.020576,0.21643    -0.37023      2.3573,-0.031189    0.097351   -0.022263,0.40991     0.12439      1.1104,0.475586     0.145508      10.8984,0  0  0,24.78589      120.9973      140.3632,0.03924561        -0.875      140.3632,-64,6.75,
22:23:52:58,6148,25.0156,0.9998   0.0018508  -0.0027494    0.019504,0.20591    -0.31914      2.2345,-0.01825     0.12292   -0.028595,-0.87695     0.52637    -0.18115,-0.81299     0.59326      9.6094,0  0  0,24.7859      120.9973      140.3732,0.02946472    -0.8867188      140.3732,-64,6.25,
22:23:52:92,6149,24.9844,0.99981  0.00010578  -0.0026365    0.019274,0.0062957     -0.3023      2.2088,0.018173     0.34399   -0.012947,0.090271    -0.15332     -1.0283,0.10132    -0.15393      8.7578,0  0  0,24.7859      120.9973      140.3485,0.03128052    -0.8730469      140.3485,-65,6.25,
22:23:53:26,6150,24.9844,0.99974 -0.00039661  -0.0044899    0.022172,-0.056847    -0.51337      2.5413,0.026108     0.19519  -0.0051498,0.23877     0.12988     -1.1455,0.30591     0.11298      8.6406,0  0  0,24.7859      120.9973      140.3661,0.0383606     -0.878418      140.3661,-68,6.75,
22:23:53:60,6151,24.9844,0.99975   0.0018419  -0.0057964    0.021546,0.19671    -0.66862      2.4681,0.046967     0.13074   0.0044212,-0.90039    -0.62354     -1.0654,-0.83496     -0.5498      8.7344,0  0  0,24.7859      120.9973      140.3742,0.01950073    -0.8813477      140.3742,-71,6.25,
22:23:53:94,6152,25.0469,0.99968    0.001545   -0.008044     0.02393,0.15495    -0.92576      2.7412,-0.014648    -0.35889    0.034027,1.5303     -1.3867      1.0586,1.67578     -1.43066      10.8203,0  0  0,24.78591      120.9973      140.3478,0.02731323    -0.8740234      140.3478,-66,6,
22:23:54:28,6153,25.0469,0.99948    0.002276  -0.0012824    0.032183,0.25594    -0.15527      3.6881,0.00011951    -0.18481   -0.019577,-1.8672      1.8867     0.31982,-1.69434      2.04883      10.1094,0  0  0,24.78591      120.9973      140.3464,0.02246094    -0.8691406      140.3464,-64,6.5,
22:23:54:62,6154,25.0469,0.99949   0.0022621   -0.011195    0.029685,0.22106       -1.29      3.3999,-0.20544     -1.1982    0.077515,-0.0738525      5.90625           10,0.966309       5.9375      19.7656,0  0  0,24.78591      120.9973       140.359,0.002311707    -0.8208008       140.359,-63,6.75,
22:23:54:96,6155,25.0469,0.99959   0.0013326   -0.002502    0.028476,0.14448    -0.29094      3.2631,-0.018555     0.18018   -0.010246,-0.52686     0.26807     -1.1348,-0.48145     0.31812      8.6563,0  0  0,24.78592      120.9973      140.3755,0.04772949    -0.8666992      140.3755,-62,6.5,
22:23:55:30,6156,25.0469,0.99947   0.0057269  -0.0041415    0.031695,0.6409    -0.49514      3.6299,0.14197    0.075256    0.080627,-1.5176      1.9102     -5.5391,-1.3574      2.0566      4.2344,0  0  0,24.78592      120.9973      140.3972,0.01395416    -0.8261719      140.3972,-63,6.5,
22:23:55:64,6157,25.0469,0.99917   0.0033968  -0.0045844    0.040267,0.36779    -0.54058      4.6139,-0.012115   -0.046814    0.052277,0.25903    -0.20959     -1.3457,0.32568    -0.17664      8.4375,0  0  0,24.78592      120.9973      140.4203,0.03143311    -0.8168945      140.4203,-64,6.25,
22:23:55:98,6158,25.0313,0.99908   0.0027459   -0.004569     0.04261,0.29207     -0.5365      4.8829,0.0021458     0.10657  -0.0090485,0.15784     -1.0576     0.18933,0.151     -1.0156      9.9844,0  0  0,24.78592      120.9973      140.4181,0.05157471    -0.8496094      140.4181,-65,6.25,
22:23:56:33,6159,25.0313,0.99918   0.0016251  -0.0014788    0.040494,0.17921    -0.17685      4.6412,-0.041138   -0.016724   -0.029831,0.25171    -0.14197      1.4756,0.277344    -0.130981      11.2656,0  0  0,24.78592      120.9973       140.429,0.04940796    -0.9057617       140.429,-63,6.25,
22:23:56:67,6160,25.0313,0.99927   0.0020972  -0.0015117    0.038243,0.23352    -0.18229      4.3831,-0.014877   -0.084961   -0.022308,0.17798     0.44775      0.9165,0.255859     0.475098      10.7031,0  0  0,24.78593      120.9973      140.3796,0.04351807    -0.8789063      140.3796,-66,6.25,
22:23:57:01,6161,24.9844,0.99942  0.00036486  -0.0023796    0.034024,0.032508    -0.27395      3.8995,0.04364    0.041962   -0.018784,1.2686     -0.5791     0.43481,1.27148     -0.65332      10.2188,0  0  0,24.78593      120.9973      140.2946,0.04989624    -0.8671875      140.2946,-66,6.25,
22:23:57:35,6162,24.9844,0.99961 -0.00076425   0.0039426    0.027698,-0.075031     0.45404      3.1741,-0.10736    -0.12274    -0.11542,-1.2012      1.8115     0.73828,-1.16992      1.84863      10.5234,0  0  0,24.78593      120.9973       140.269,0.01238251    -0.8725586       140.269,-67,6.25,
22:23:57:69,6163,24.9844,0.99977 -0.00092164 -9.2254e-05    0.021466,-0.10581   -0.008302        2.46,0.081299    -0.02858   -0.039673,2.0234    -0.31152     0.23718,2.01367    -0.407959      10.0234,0  0  0,24.78594      120.9973      140.2654,0.01823425    -0.9101563      140.2654,-65,6.25,
22:23:58:03,6164,24.9844,0.99984    0.001909   0.0031816    0.017612,0.22514     0.36068      2.0191,0.01223   -0.017838   -0.031235,-0.84082    0.091492     -0.5293,-0.89258     0.15857        9.25,0  0  0,24.78594      120.9973      140.2583,0.02539063    -0.8378906      140.2583,-67,6.25,
22:23:58:37,6165,24.9844,0.99982  0.00074878     0.00157    0.019098,0.089224     0.17823      2.1888,0.017456    -0.40356   -0.023193,-2.9297     -1.6123     -4.7852,-2.9844     -1.4912      5.0078,0  0  0,24.78594      120.9973      140.2504,-0.0259552    -0.8237305      140.2504,-67,6.25,
22:23:58:71,6166,24.9844,0.99976 -0.00054052   0.0010961    0.021882,-0.059176     0.12693      2.5077,-0.11292    0.010162   0.0038853,-0.58301      2.1172     0.92529,-0.512695      2.11719      10.7188,0  0  0,24.78594      120.9973      140.2025,0.05554199    -0.7768555      140.2025,-66,5.75,
22:23:59:05,6167,24.9844,0.99975  0.00056512  3.4082e-05    0.022342,0.064829   0.0024577      2.5604,0.022964   -0.037354  -0.0047264,-0.41895     0.27734     0.31274,-0.401611     0.309814      10.1016,0  0  0,24.78595      120.9973      140.2034,0.03158569    -0.8466797      140.2034,-73,6.25,
22:23:59:39,6168,24.9844,0.99983   0.0015889  0.00058952    0.018196,0.18328     0.06423      2.0853,-0.0070076     0.11017   -0.050751,-0.84717     0.36206     0.19104,-0.85449     0.42383      9.9766,0  0  0,24.78595      120.9973      140.2491,0.02993774    -0.8261719      140.2491,-74,6.25,
22:23:59:73,6169,24.9844,0.99995   0.0011779 -0.00049213   0.0094706,0.13443    -0.05767      1.0852,0.0019989   -0.061676   -0.045227,0.30981    0.088257      0.4353,0.329102     0.106873      10.2266,0  0  0,24.78595      120.9973      140.2376,0.04077148    -0.8271484      140.2376,-71,6.5,
22:24:00:07,6170,25,0.99998   0.0021443  -0.0036493   0.0040101,0.24404    -0.41916     0.45863,0.07428     0.15137    -0.02475,2.4746     0.21289     0.91748,2.54102     0.246948      10.6875,0  0  0,24.78595      120.9973      140.2393,0.0447998    -0.8144531      140.2393,-66,5.75,
22:24:00:41,6171,25,0.99995  0.00056121    0.002356     0.00963,0.066907     0.26935      1.1037,-0.00041962    -0.10236    0.055389,-3.2832      1.2578  -0.0086594,-3.291       1.335      9.7656,0  0  0,24.78596      120.9973      140.2307,0.00573349    -0.8310547      140.2307,-64,5.75,
22:24:00:75,6172,25,0.99981 -0.00098483   0.0014663    0.019263,-0.1096     0.17017      2.2074,0.010689    -0.17578    0.064392,-1.2744    -0.49438    -0.99951,-1.3027    -0.45972      8.7891,0  0  0,24.78596      120.9973      140.2216,0.04025269    -0.7807617      140.2216,-64,6,
22:24:01:08,6173,25.0313,0.99909   0.0001959  -0.0018898    0.042538,0.013216    -0.21731      4.8759,-0.002182    0.070862     0.10352,-0.25146    0.092041    -0.15564,-0.21179     0.11554      9.6328,0  0  0,24.78596      120.9973       140.219,0.05569458    -0.7226563       140.219,-65,6.25,
22:24:01:42,6174,25.0313,0.99874 -0.00079798  -0.0022235    0.050085,-0.10409    -0.24989       5.742,-0.022034  -0.0059166   -0.055054,-0.13147     0.45581     0.68506,-0.0380249     0.445557      10.4766,0  0  0,24.78596      120.9973      140.2552,0.0645752    -0.6567383      140.2552,-65,6.25,
22:24:01:76,6175,25.0313,0.99955  -0.0013469    0.003668    0.029573,-0.14185      0.4247      3.3888,0.039856   -0.054321    -0.18384,-1.9326     0.97803      1.9736,-1.95215       1.0625        11.75,0  0  0,24.78597      120.9973      140.2776,0.05267334    -0.5849609      140.2776,-66,6,
22:24:02:10,6176,25.0469,0.9997  -0.0012808  -0.0013319   -0.024239,-0.14303    -0.15614     -2.7777,-0.0016918     0.02034    -0.43945,0.2915     0.38623     0.47949,0.297852     0.375488      10.2656,0  0  0,24.78597      120.9973      140.3108,0.009262085    -0.4987793      140.3108,-67,6,
22:24:02:44,6177,25.0469,0.99271  -0.0013863   0.0028223     -0.1205,-0.196675     0.301913     -13.8422,-0.11761    0.074463    -0.69678,-0.10687     0.25806    -0.11072,-0.22388     0.17908      9.6797,0  0  0,24.78597      120.9973      140.3166,-0.03057861    -0.3806152      140.3166,-68,6.25,
22:24:02:78,6178,25.0313,0.97215 -0.00088468   0.0026671    -0.23436,-0.170181     0.273355     -27.1079,0.010025    0.057281    -0.73047,0.047821    -0.12286   -0.065186,0.048462    -0.11493      9.7266,0  0  0,24.78597      120.9973      140.3483,-0.05471802    -0.3156738      140.3483,-65,6.5,
22:24:03:12,6179,25.0313,0.93414 -0.00090484   0.0015404     -0.3569,-0.159856     0.127884     -41.8195,0.0018692    0.081238    -0.79492,-0.63867    -0.10028    0.023148,-0.43384    -0.53125      9.8125,0  0  0,24.78597      120.9973      140.3637,-0.1413574    -0.3354492      140.3637,-64,6.25,
22:24:03:46,6180,25.0313,0.87436  -0.0019668  -0.0012918    -0.48528,-0.125226    -0.238807     -58.0616,0.041748   -0.032593    -0.85938,-1.1201     -1.4326      1.2744,0.688477     -1.72266      11.0547,0  0  0,24.78597      120.9973      140.3442,-0.2980957     -0.371582      140.3442,-68,6.5,
22:24:03:80,6181,25.0469,0.8121  0.00081431   0.0022259    -0.58352,-0.0730594     0.261593     -71.3969,-0.0014925     0.10767    -0.61572,-1.0166      0.1394    -0.18652,-0.50391    -0.93408      9.6016,0  0  0,24.78597      120.9973      140.3508,-0.4008789    -0.3117676      140.3508,-69,6.75,
22:24:04:14,6182,25.0469,0.7477   0.0010517   0.0015128    -0.66404,-0.0250077     0.209639     -83.2175,-0.02916     0.14258    -0.60938,-3.7402     0.13892      2.6875,-0.619629     -3.71094      12.4688,0  0  0,24.78597      120.9973      140.3636,-0.4667969    -0.2304688      140.3636,-73,6.75,
22:24:04:48,6183,25.0469,0.69358   0.0009775   0.0013264    -0.72038,-0.0318038     0.186113     -92.1712,-0.010849    0.043549    -0.43237,-0.91064     0.64941     0.79688,-0.648438    -0.943848      10.5859,0  0  0,24.78597      120.9973      140.3626,-0.609375    -0.1778564      140.3626,-74,6.75,
22:24:04:83,6184,25.0469,0.65413 -0.00010889 -0.00016385    -0.75638,0.0060395   -0.0217195     -98.2928,-0.0013742    0.029312    -0.23364,-0.45532    -0.73242      1.4219,0.793457    -0.342041      11.2109,0  0  0,24.78597      120.9973      140.3539,-0.7124023    -0.1218262      140.3539,-67,5.75,
22:24:05:17,6185,25.0469,0.63459   -0.011039  -0.0081002    -0.77273,-0.08549321     -1.566704     -101.2115,0.0032387     -1.0293   -0.087219,-3.7832       -1.79     -2.5918,2.7637     -3.3711      7.0938,0  0  0,24.78597      120.9973      140.3292,-0.753418   -0.03036499      140.3292,-70,6.25,
22:24:05:51,6186,25.0469,0.65492   0.0034216  0.00012667    -0.75569,0.245821     0.305807     -98.1722,0.11719     0.15857     0.28857,-1.292       1.001     -3.6973,-0.85254     -1.3848      6.0938,0  0  0,24.78598      120.9973      140.3046,-0.7578125     -0.152832      140.3046,-71,6,
22:24:05:85,6187,25.0469,0.68671  0.00097124 -0.00096302    -0.72693,0.156647   0.00512428     -93.2601,0.029053    0.016571     0.19739,0.25732     -1.7256       1.377,1.70703     0.385498      11.1641,0  0  0,24.78597      120.9973      140.2927,-0.7954102    -0.2401123      140.2927,-67,5.5,
22:24:06:19,6188,25.0469,0.71122  0.00061511   0.0016523    -0.70297,-0.0829706     0.184215     -89.3312,0.076477     0.02092     0.17468,-1.8662      -1.207      3.3242,1.13867     -1.89063      13.1172,0  0  0,24.78597      120.9973      140.2772,-0.840332    -0.3251953      140.2772,-70,6.25,
22:24:06:53,6189,25.0469,0.71969   0.0004812  0.00012585    -0.69429,0.0296725    0.0486635     -87.9418,0.030899    0.072083   0.0071983,-0.25903    -0.25659     0.62891,0.231689    -0.259277      10.4219,0  0  0,24.78597      120.9973      140.2663,-0.7685547    -0.3618164      140.2663,-72,5.5,
22:24:06:87,6190,25.0781,0.72263   0.0017479  -0.0013471    -0.69123,0.251445    0.0269018     -87.4551,0.039185     0.12964   0.0053406,-0.3855    -0.87109     0.33887,0.836426    -0.375244      10.1328,0  0  0,24.78597      120.9973      140.2566,-0.78125    -0.3952637      140.2566,-70,6,
22:24:07:21,6191,25.0781,0.72089   0.0028444  -0.0017921    -0.69304,0.377296    0.0778526     -87.7431,0.0383    0.061035   -0.027618,-0.010742     -0.3313    0.019119,0.31226      0.0448      9.8125,0  0  0,24.78597      120.9973      140.2451,-0.7626953    -0.4001465      140.2451,-73,6.25,
22:24:07:55,6192,25.0781,0.71594   0.0036436  -0.0013446    -0.69815,0.4065     0.181182     -88.5574,-0.021271   0.0042801   -0.058472,0.088257    -0.71094     0.37549,0.681152     0.140869      10.1641,0  0  0,24.78597      120.9974      140.2446,-0.7314453    -0.4123535      140.2446,-74,6.5,
22:24:07:89,6193,25.125,0.71272   0.0041204 -0.00015168    -0.70144,0.348723      0.31881     -89.0849,0.02211   -0.098083   -0.020416,-0.8418    -0.38525     0.13037,0.32739    -0.78516      9.9297,0  0  0,24.78598      120.9974      140.2462,-0.7084961    -0.4074707      140.2462,-72,6.5,
22:24:08:23,6194,25.125,0.71258   0.0056912   0.0014678    -0.70157,0.346741     0.577403     -89.1062,0.0048561   -0.028534   0.0029469,-0.062805    -0.06958     0.72168,-0.0332336  0.000461102      10.5078,0  0  0,24.78598      120.9974      140.2133,-0.7607422    -0.4223633      140.2133,-70,6,
22:24:08:57,6195,25.125,0.71119   0.0029273   0.0010545    -0.70299,0.15362     0.321751     -89.3357,0.0039024    0.025955   -0.039551,-0.59814     0.23425    -0.80322,-0.29272     -0.5708      8.9844,0  0  0,24.78598      120.9974      140.1768,-0.7617188    -0.4311523      140.1768,-69,6.25,
22:24:08:91,6196,25.125,0.70373   0.0034587   0.0043502    -0.71045,-0.0752446     0.632394     -90.5447,0.0063782    0.062286    -0.11597,0.18115     0.42578     -1.0225,-0.52881     0.16577      8.7578,0  0  0,24.78598      120.9974      140.1474,-0.7211914    -0.4367676      140.1474,-67,6,
22:24:09:25,6197,25.125,0.67855   0.0042882    0.004211    -0.73453,-0.0210157     0.688386     -94.5377,-0.0011578    -0.03244    -0.32886,0.52588   -0.016922    0.021515,-0.14001     0.52197      9.8125,0  0  0,24.78598      120.9974       140.118,-0.5942383    -0.4194336       140.118,-67,6,
22:24:09:58,6198,25.125,0.61738   0.0089748   0.0039795     -0.7866,0.2762892      1.090567     -103.7423,0.030167  -0.0038605    -0.63818,0.4458      1.1055     -1.2012,-1.3428     0.20593      8.5625,0  0  0,24.78598      120.9974       140.141,-0.4880371     -0.388916       140.141,-67,6.25,
22:24:09:92,6199,25.125,0.53024   0.0069101   0.0017668    -0.84781,0.2482437     0.7787099     -115.9525,-0.0043221    -0.12286    -0.66699,0.85645    -0.34106    -0.63965,-0.1864     0.95752      9.1406,0  0  0,24.78598      120.9974      140.1995,-0.3789063    -0.3671875      140.1995,-70,5.75,
22:24:10:26,6200,25.125,0.41988   0.0079894   0.0034051    -0.90754,0.03028233     0.9947501     -130.3443,0.013451   -0.010078    -0.77734,1.2295     0.70361     -1.0254,-1.4863     0.47607      8.7422,0  0  0,24.78598      120.9974      140.1394,-0.269043    -0.3786621      140.1394,-71,6,
22:24:10:60,6201,25.125,0.30051   0.0068135   0.0043595    -0.95374,-0.2418578     0.8948129     -145.0243,0.026123   -0.061493    -0.81494,0.16125     0.65137    -0.41724,-0.64111     -0.4834      9.3594,0  0  0,24.78598      120.9974      140.1625,-0.241333    -0.3352051      140.1625,-71,6,
22:24:10:94,6202,25.1094,0.17282   0.0068508   0.0027478    -0.98493,-0.1744715     0.8276517     -160.0966,0.034088    0.030838    -0.69922,0.27466   -0.036713     0.44214,-0.39624    0.0979004      10.2266,0  0  0,24.78598      120.9974      140.2495,-0.2329102    -0.2895508      140.2495,-67,6.25,
22:24:11:28,6203,25.1094,0.054219   0.0080612   0.0028546    -0.99849,-0.2765694     0.9401276     -173.7859,-0.0042458   -0.012413    -0.79297,-0.12146     0.58984   -0.097534,-0.094788    -0.64697      9.6875,0  0  0,24.78598      120.9974      140.3169,-0.2191162    -0.1589355      140.3169,-72,6,
22:24:11:62,6204,25.1094,-0.018253    0.011091   0.0025995    -0.99977,-0.3210965      1.265345      177.9046,0.036865    -0.23645    -0.24023,0.68408    0.061768     -1.0811,-0.85156    -0.13403      8.6953,0  0  0,24.78598      120.9974      140.3594,-0.1461182    0.01293182      140.3594,-70,6,
22:24:11:96,6205,25.0625,-0.046579    0.011394   0.0026689    -0.99885,-0.3663925      1.290047       174.656,0.032867     0.12048    -0.12097,0.057648     0.83643      1.1035,-0.235718    -0.904297      10.8828,0  0  0,24.78598      120.9974      140.3825,-0.1244507     0.1700439      140.3825,-66,5.75,
22:24:12:30,6206,25.0625,-0.056491   0.0085093   0.0043215    -0.99836,-0.549559     0.9455636      173.5183,-0.046021     0.11987    -0.01413,0.58496     0.62891   -0.015717,-0.68213    -0.78906      9.7578,0  0  0,24.78598      120.9974      140.4012,-0.1170654     0.2802734      140.4012,-67,6.25,
22:24:12:64,6207,25.0625,-0.03398    0.006958   0.0039145    -0.99939,-0.4754338     0.7816237      176.1021,0.015762     0.04657     0.25024,-0.46973     0.12573     -1.3428,0.35864    -0.16309      8.4531,0  0  0,24.78598      120.9974      140.4344,-0.1611328     0.2585449      140.4344,-67,6,
22:24:12:98,6208,25.0469,0.013694   0.0070777   0.0041238    -0.99987,-0.4614425      0.817444     -178.4339,0.0065994   -0.037323     0.21191,-0.073608     0.70361    -0.48877,-0.075623     -0.7793      9.2969,0  0  0,24.78597      120.9974      140.3761,-0.2519531     0.2056885      140.3761,-67,7,
22:24:13:33,6209,25.0469,0.043576   0.0006644   0.0059536    -0.99903,-0.6782658       0.10579     -175.0055,0.0033913   -0.060699    0.096252,-1.9902    0.074402    -0.78027,1.9658    -0.35571      9.0078,0  0  0,24.78597      120.9974      140.3702,-0.3378906     0.2529297      140.3702,-66,6.25,
22:24:13:67,6210,25.0156,0.053629   0.0011814   0.0071964    -0.99853,-0.8162133     0.1794069     -173.8527,-0.0068855    -0.13037    0.012794,-0.55371      -0.375     0.87451,0.572266     0.160889      10.6641,0  0  0,24.78597      120.9974      140.3435,-0.4038086     0.3364258      140.3435,-65,6.25,
22:24:14:01,6211,25.0156,0.047995   0.0055196   0.0030352    -0.99883,-0.3170635     0.6484628     -174.4998,0.12793     0.55859     -0.1051,2.4063      1.4463      1.1475,-2.71484     -1.25781      10.8906,0  0  0,24.78597      120.9974      140.3216,-0.4226074       0.28125      140.3216,-70,6.25,
22:24:14:35,6212,25.0156,0.037213   0.0034334    0.002185     -0.9993,-0.2355691     0.4024793     -175.7355,0.039551   -0.042267   -0.031097,0.10388     0.30396    -0.77344,-0.18469    -0.32861      9.0156,0  0  0,24.78597      120.9974      140.3224,-0.4157715     0.3220215      140.3224,-69,6,
22:24:14:69,6213,25,0.045449   0.0038752   0.0021403    -0.99896,-0.2248276     0.4547507      -174.791,-0.015488       0.203     0.12524,0.9209     0.23291      1.5039,-1.0498    -0.192749      11.2813,0  0  0,24.78596      120.9974      140.3584,-0.442627     0.3000488      140.3584,-83,3.25,
22:24:15:03,6214,25,0.074774   0.0022021   0.0018194     -0.9972,-0.1890318     0.2672233      -171.424,-0.13135    -0.06488     0.10852,-0.46338    -0.82568      1.2754,0.539063     0.695801      11.0703,0  0  0,24.78596      120.9974      140.3705,-0.4951172     0.3173828      140.3705,-70,5.5,
22:24:15:37,6215,25,0.095209    0.001661   0.0037311    -0.99545,-0.4074971      0.230174      -169.074,-0.0083084  -0.0066757    0.058441,-2.1992    -0.95996      4.1016,2.28711     0.424316      13.9063,0  0  0,24.78596      120.9974      140.3574,-0.5805664     0.3408203      140.3574,-76,5.25,
22:24:15:71,6216,25.0156,0.085047   0.0013084   0.0056239    -0.99636,-0.6293698     0.2041942     -170.2435,0.05011    -0.12524    -0.20862,0.33521     -0.5957     -2.3105,-0.24695     0.56543      7.4844,0  0  0,24.78596      120.9974      140.3243,-0.5795898     0.3618164      140.3243,-70,6,
22:24:16:05,6217,25.0156,0.062062   0.0048365   0.0058757    -0.99804,-0.6376388     0.5949346     -172.8867,-0.0010014   -0.029816   -0.068054,-0.13745      -2.123      2.6504,0.27417      1.95117      12.4688,0  0  0,24.78596      120.9974      140.3287,-0.5576172     0.3681641      140.3287,-69,6.75,
22:24:16:39,6218,25.0156,0.069693   0.0035744   0.0054138    -0.99755,-0.5903325     0.4518343     -172.0095,0.12659     0.43896   -0.078186,-1.2148      3.1465     -5.1367,0.71094     -3.3262      4.6289,0  0  0,24.78595      120.9974      140.3476,-0.5751953     0.3891602      140.3476,-70,6.25,
22:24:16:73,6219,25,0.066668   0.0032983  0.00027484    -0.99777,-0.006226204     0.3792163     -172.3547,-0.32422     0.40063   -0.042114,-7.78516     -8.05469      25.0625,8.41406      6.83203      34.9688,0  0  0,24.78595      120.9974      140.3314,-0.6274414     0.3161621      140.3314,-75,5.75,
22:24:17:07,6220,25,0.061129   0.0073432 -0.00091531     -0.9981,0.1561424     0.8334856     -172.9895,0.016785     0.10651   -0.038757,-0.78857     0.54492   -0.005806,0.56494    -0.60889      9.7969,0  0  0,24.78595      120.9974      140.3228,-0.5888672     0.3991699      140.3228,-67,6.25,
22:24:17:41,6221,25,0.056714  0.00083737  -0.0018363    -0.99839,0.2155289    0.08386667     -173.4974,-0.54199    -0.37939   -0.015099,-2.8652     -1.5654     -2.4551,3.041      1.2197      7.3281,0  0  0,24.78595      120.9974      140.3438,-0.565918     0.3295898      140.3438,-71,6.25,
22:24:17:75,6222,25.0156,0.051243   0.0094877   0.0032387    -0.99864,-0.3149704      1.104812     -174.1281,0.010162     0.18115    -0.10449,-0.49268     0.78857      0.9751,0.184326    -0.892578      10.7656,0  0  0,24.78595      120.9974      140.3103,-0.5756836     0.4182129      140.3103,-72,6,
22:24:18:08,6223,25.0156,0.0434    0.011593   0.0062209    -0.99897,-0.6546705       1.35811     -175.0325,0.022827    0.085022 -0.00048923,1.5508      -1.208     -1.3525,-1.6455      1.2441      8.4141,0  0  0,24.78594      120.9974      140.3042,-0.5561523      0.456543      140.3042,-71,6,
22:24:18:42,6224,25.0156,0.055301    0.011378   0.0088011    -0.99837,-0.9350832      1.357551     -173.6701,-0.075317    -0.15808    0.075684,1.5664     0.25366     0.35034,-1.80762        -0.25      10.1016,0  0  0,24.78594      120.9974      140.3096,-0.5463867     0.4333496      140.3096,-75,6.25,
22:24:18:76,6225,25.0625,0.067444    0.013952   0.0065618     -0.9976,-0.6425704      1.645923     -172.2739,-0.019882   -0.067505   -0.054138,1.3457      1.4854     -4.2617,-1.6865     -1.3535      5.4688,0  0  0,24.78594      120.9974      140.3091,-0.5732422     0.4279785      140.3091,-69,6.75,
22:24:19:10,6226,25.0625,0.057341    0.011705   0.0015596    -0.99829,-0.1015307      1.349386     -173.4263,0.075378   -0.059784   -0.093567,2.1855     0.88672     -3.8672,-2.4063    -0.63867      5.8672,0  0  0,24.78594      120.9974      140.3083,-0.5629883     0.4746094      140.3083,-72,6,
22:24:19:44,6227,25.0625,0.044695    0.010559  3.7123e-06    -0.99894,0.05366608      1.208786     -174.8758,0.040558    0.032806     -0.0755,0.67432   -0.079895      -1.248,-0.84668     0.15088      8.5234,0  0  0,24.78593      120.9974      140.2816,-0.565918     0.4584961      140.2816,-71,6.25,
22:24:19:78,6228,25.0313,0.036905   0.0099053  0.00062823    -0.99927,-0.03005377      1.136965     -175.7701,-0.00082207    0.010498   -0.035828,0.35864     -1.5762      -1.292,-0.41016      1.5938      8.4922,0  0  0,24.78593      120.9974      140.2552,-0.559082     0.4304199      140.2552,-68,6.5,
22:24:20:12,6229,25.0313,0.036396   0.0092258   0.0019296    -0.99929,-0.1825142      1.064559     -175.8299,-0.055145      0.1521    0.030533,-1.2988      0.1134    -0.50977,1.1016    -0.24268      9.3047,0  0  0,24.78593      120.9974      140.2525,-0.5698242     0.4765625      140.2525,-76,5.25,
22:24:20:46,6230,25.0313,0.041063    0.008202   0.0018314    -0.99912,-0.171103      0.947714     -175.2944,0.12683    0.056671    0.020767,-0.63818       2.293     -1.7178,0.31006     -2.3516      8.0703,0  0  0,24.78593      120.9974      140.2465,-0.5703125     0.5288086      140.2465,-80,5,
22:24:20:80,6231,24.9375,0.042868   0.0069829  0.00068074    -0.99906,-0.04363599     0.8027967     -175.0864,0.04245    0.062805   0.0091782,-0.94531      1.9951    -0.29785,0.63232     -2.0723         9.5,0  0  0,24.78592      120.9974       140.248,-0.5791016     0.5253906       140.248,-67,6.25,
22:24:21:14,6232,24.9375,0.043546   0.0069698   0.0021248    -0.99903,-0.2084919      0.808533     -175.0098,0.019821    0.059113    0.036713,-0.99805       1.457     0.41016,0.717773     -1.57324      10.2031,0  0  0,24.78592      120.9974       140.245,-0.5791016      0.503418       140.245,-68,6,
22:24:21:48,6233,24.9375,0.052185    0.003241   0.0056433    -0.99862,-0.6264219     0.4046244     -174.0195,-0.20374    -0.16504    0.070007,0.10217    -0.31812     -2.9023,-0.1048     0.23804      6.8906,0  0  0,24.78592      120.9974      140.2499,-0.5683594     0.5097656      140.2499,-65,6,
22:24:21:82,6234,24.9531,0.068311    0.001395  -0.0003038    -0.99766,0.04565153     0.1571039      -172.166,0.023071     0.11914    0.069336,-0.34229     0.47461     -1.0273,0.24036    -0.50781      8.7656,0  0  0,24.78592      120.9974      140.2406,-0.6040039     0.4885254      140.2406,-63,6.5,
22:24:22:17,6235,24.9531,0.076304   0.0039909  -0.0017827    -0.99708,0.2385884     0.4404003     -171.2466,-0.11237   -0.019638  -0.0015287,0.58984    -0.65527     -1.5303,-0.54443      0.7627        8.25,0  0  0,24.78592      120.9974      140.2234,-0.6279297     0.4819336      140.2234,-61,6.5,
22:24:22:51,6236,24.9531,0.071574   0.0040889  -0.0031106    -0.99742,0.3890769     0.4418334     -171.7896,0.084961    0.060181   -0.051361,0.43042     0.90381       1.584,-0.647949    -0.746094       11.375,0  0  0,24.78591      120.9974      140.2208,-0.6162109     0.5498047      140.2208,-61,6,
22:24:22:85,6237,24.8906,0.068162   0.0053119  -0.0017202    -0.99766,0.2381625     0.5938445     -172.1818,-0.21362   0.0095825   -0.027603,-0.83105     -3.5566      1.7539,1.1875      3.43555      11.5469,0  0  0,24.78591      120.9974      140.2062,-0.6240234     0.5493164      140.2062,-62,5.75,
22:24:23:19,6238,24.8906,0.066804   0.0051884  -0.0024723    -0.99775,0.3223997     0.5742912     -172.3374,-0.12128    0.011902   -0.043518,0.42627    -0.76318     -1.6914,-0.40234     0.84912      8.0938,0  0  0,24.78591      120.9974      140.1484,-0.6162109     0.5751953      140.1484,-60,6.25,
22:24:23:53,6239,24.875,0.060653   0.0029798   0.0001756    -0.99815,0.0006247375     0.3420476     -173.0454,0.028442   -0.058319   -0.049805,0.69385      2.8828     -1.3096,-1.082     -2.7754      8.4766,0  0  0,24.78591      120.9974      140.1071,-0.6132813     0.6181641      140.1071,-61,6,
22:24:23:87,6240,24.875,0.062986   0.0018381 -5.5684e-05    -0.99801,0.01963529     0.2098137     -172.7775,0.063171    -0.16028  -0.0049896,-0.22095      2.1816     -3.8203,-0.066956     -2.1855      5.9727,0  0  0,24.7859      120.9974      140.0594,-0.6166992     0.6201172      140.0594,-58,6.25,
22:24:24:21,6241,24.875,0.059003   0.0019988  5.1389e-05    -0.99826,0.007635768     0.2289905     -173.2348,0.031052     0.26465     -0.1084,-1.4297      1.7627      -2.416,1.165     -1.9141      7.3828,0  0  0,24.7859      120.9974       139.985,-0.6201172     0.5869141       139.985,-60,6.25,
22:24:24:55,6242,24.9844,0.049771   0.0024565  2.8266e-05    -0.99876,0.01077507     0.2813016     -174.2943,0.06958    0.013947    -0.10059,-1.9443      2.0859     -2.1035,1.6904     -2.2617      7.6953,0  0  0,24.7859      120.9974      139.8738,-0.6689453     0.5888672      139.8738,-61,6,
